$GNVTG,0.00,T,,M,0.00,N,0.00,K,N*2C
$GNGGA,010444.311,,,,,0,0,,,M,,M,,*50
$GPGSA,A,1,,,,,,,,,,,,,,,*1E
$GLGSA,A,1,,,,,,,,,,,,,,,*02
$GNRMC,010444.311,V,,,,,0.00,0.00,200326,,,N*50
$GNVTG,0.00,T,,M,0.00,N,0.00,K,N*2C
$GNGGA,010445.311,,,,,0,0,,,M,,M,,*51
$GPGSA,A,1,,,,,,,,,,,,,,,*1E
$GLGSA,A,1,,,,,,,,,,,,,,,*02
$GNRMC,010445.311,V,,,,,0.00,0.00,200326,,,N*51
$GNVTG,0.00,T,,M,0.00,N,0.00,K,N*2C
$GNGGA,010446.311,,,,,0,0,,,M,,M,,*52
$GPGSA,A,1,,,,,,,,,,,,,,,*1E
$GLGSA,A,1,,,,,,,,,,,,,,,*02
$GPGSV,2,1,08,23,,,32,29,,,21,10,,,19,15,,,36*72
$GPGSV,2,2,08,18,,,37,26,,,18,13,,,22,16,,,31*76
$GLGSV,2,1,05,85,,,38,71,,,33,76,,,,70,,,41*60
$GLGSV,2,2,05,82,,,*6A
$GNRMC,010446.311,V,,,,,0.00,0.00,200326,,,N*52
$GNVTG,0.00,T,,M,0.00,N,0.00,K,N*2C
$GNGGA,010447.311,,,,,0,0,,,M,,M,,*53
$GPGSA,A,1,,,,,,,,,,,,,,,*1E
$GLGSA,A,1,,,,,,,,,,,,,,,*02
$GNRMC,010447.311,V,,,,,0.00,0.00,200326,,,N*53
$GNVTG,0.00,T,,M,0.00,N,0.00,K,N*2C
$GNGGA,010448.086,,,,,0,0,,,M,,M,,*51
$GPGSA,A,1,,,,,,,,,,,,,,,*1E
$GLGSA,A,1,,,,,,,,,,,,,,,*02
$GNRMC,010448.086,V,,,,,0.00,0.00,200326,,,N*51
$GNVTG,0.00,T,,M,0.00,N,0.00,K,N*2C
$GNGGA,010448.287,,,,,0,0,,,M,,M,,*52
$GPGSA,A,1,,,,,,,,,,,,,,,*1E
$GLGSA,A,1,,,,,,,,,,,,,,,*02
$GNRMC,010448.287,V,,,,,0.00,0.00,200326,,,N*52
$GNVTG,0.00,T,,M,0.00,N,0.00,K,N*2C
$GNGGA,010449.270,,,,,0,0,,,M,,M,,*5B
$GPGSA,A,1,,,,,,,,,,,,,,,*1E
$GLGSA,A,1,,,,,,,,,,,,,,,*02
$GNRMC,010449.270,V,,,,,0.00,0.00,200326,,,N*5B
$GNVTG,0.00,T,,M,0.00,N,0.00,K,N*2C
$GNGGA,010450.281,,,,,0,0,,,M,,M,,*5D
$GPGSA,A,1,,,,,,,,,,,,,,,*1E
$GLGSA,A,1,,,,,,,,,,,,,,,*02
$GPGSV,2,1,08,23,,,32,29,,,23,10,,,32,15,,,33*7C
$GPGSV,2,2,08,18,,,39,26,,,27,13,,,26,16,,,32*73
$GLGSV,2,1,07,85,,,30,71,,,34,76,,,,70,,,41*6D
$GLGSV,2,2,07,75,,,,82,,,,65,,,*69
$GNRMC,010450.281,V,,,,,0.00,0.00,200326,,,N*5D
$GNVTG,0.00,T,,M,0.00,N,0.00,K,N*2C
$GNGGA,010451.281,,,,,0,0,,,M,,M,,*5C
$GPGSA,A,1,,,,,,,,,,,,,,,*1E
$GLGSA,A,1,,,,,,,,,,,,,,,*02
$GNRMC,010451.281,V,,,,,0.06,0.00,200326,,,N*5A
$GNVTG,0.00,T,,M,0.06,N,0.11,K,N*2A
$GNGGA,010452.281,,,,,0,0,,,M,,M,,*5F
$GPGSA,A,1,,,,,,,,,,,,,,,*1E
$GLGSA,A,1,,,,,,,,,,,,,,,*02
$GNRMC,010452.281,V,,,,,0.53,0.00,200326,,,N*59
$GNVTG,0.00,T,,M,0.53,N,0.97,K,N*24
$GNGGA,010453.281,,,,,0,0,,,M,,M,,*5E
$GPGSA,A,1,,,,,,,,,,,,,,,*1E
$GLGSA,A,1,,,,,,,,,,,,,,,*02
$GNRMC,010453.281,V,,,,,0.76,76.35,200326,,,N*68
$GNVTG,76.35,T,,M,0.76,N,1.40,K,N*1F
$GNGGA,010454.098,,,,,0,0,,,M,,M,,*53
$GPGSA,A,1,,,,,,,,,,,,,,,*1E
$GLGSA,A,1,,,,,,,,,,,,,,,*02
$GNRMC,010454.098,V,,,,,1.39,33.71,200326,,,N*6E
$GNVTG,33.71,T,,M,1.39,N,2.58,K,N*1E
$GNGGA,010455.098,,,,,0,0,,,M,,M,,*52
$GPGSA,A,1,,,,,,,,,,,,,,,*1E
$GLGSA,A,1,,,,,,,,,,,,,,,*02
$GPGSV,2,1,08,23,,,39,29,,,36,10,,,26,15,,,37*72
$GPGSV,2,2,08,18,,,37,26,,,24,13,,,22,16,,,24*7D
$GLGSV,2,1,08,85,,,41,71,,,31,76,,,,70,,,40*60
$GLGSV,2,2,08,75,,,,82,,,,66,,,,65,,,*66
$GNRMC,010455.098,V,,,,,2.63,11.89,200326,,,N*64
$GNVTG,11.89,T,,M,2.63,N,4.88,K,N*1E
$GNGGA,010456.098,,,,,0,0,,,M,,M,,*51
$GPGSA,A,1,,,,,,,,,,,,,,,*1E
$GLGSA,A,1,,,,,,,,,,,,,,,*02
$GNRMC,010456.098,V,,,,,2.87,1.83,200326,,,N*56
$GNVTG,1.83,T,,M,2.87,N,5.32,K,N*2F
$GNGGA,010457.098,,,,,0,0,,,M,,M,,*50
$GPGSA,A,1,,,,,,,,,,,,,,,*1E
$GLGSA,A,1,,,,,,,,,,,,,,,*02
$GNRMC,010457.098,V,,,,,3.51,342.87,200326,,,N*5D
$GNVTG,342.87,T,,M,3.51,N,6.50,K,N*22
$GNGGA,010458.098,,,,,0,0,,,M,,M,,*5F
$GPGSA,A,1,,,,,,,,,,,,,,,*1E
$GLGSA,A,1,,,,,,,,,,,,,,,*02
$GNRMC,010458.098,V,,,,,4.05,335.95,200326,,,N*57
$GNVTG,335.95,T,,M,4.05,N,7.50,K,N*26
$GNGGA,010459.098,,,,,0,0,,,M,,M,,*5E
$GPGSA,A,1,,,,,,,,,,,,,,,*1E
$GLGSA,A,1,,,,,,,,,,,,,,,*02
$GNRMC,010459.098,V,,,,,4.87,330.52,200326,,,N*52
$GNVTG,330.52,T,,M,4.87,N,9.03,K,N*2A
$GNGGA,010500.094,,,,,0,0,,,M,,M,,*5F
$GPGSA,A,1,,,,,,,,,,,,,,,*1E
$GLGSA,A,1,,,,,,,,,,,,,,,*02
$GPGSV,3,1,10,23,73,275,40,18,63,013,37,51,48,159,,15,44,070,33*77
$GPGSV,3,2,10,05,04,049,,29,,,22,10,,,36,26,,,24*48
$GPGSV,3,3,10,13,,,17,16,,,24*7D
$GLGSV,2,1,08,70,60,059,41,85,54,052,36,71,,,33,76,,,*6F
$GLGSV,2,2,08,75,,,,82,,,,66,,,,65,,,*66
$GNRMC,010500.094,V,,,,,5.08,332.12,200326,,,N*53
$GNVTG,332.12,T,,M,5.08,N,9.42,K,N*2F
$GNGGA,010502.000,,,,,0,0,,,M,,M,,*50
$GPGSA,A,1,,,,,,,,,,,,,,,*1E
$GLGSA,A,1,,,,,,,,,,,,,,,*02
$GNRMC,010502.000,V,,,,,4.70,337.75,200326,,,N*56
$GNVTG,337.75,T,,M,4.70,N,8.71,K,N*24
$GNGGA,010503.000,,,,,0,0,,,M,,M,,*51
$GPGSA,A,1,,,,,,,,,,,,,,,*1E
$GLGSA,A,1,,,,,,,,,,,,,,,*02
$GNRMC,010503.000,V,,,,,4.82,349.54,200326,,,N*50
$GNVTG,349.54,T,,M,4.82,N,8.93,K,N*2F
$GNGGA,010504.000,,,,,0,0,,,M,,M,,*56
$GPGSA,A,1,,,,,,,,,,,,,,,*1E
$GLGSA,A,1,,,,,,,,,,,,,,,*02
$GNRMC,010504.000,V,,,,,5.29,1.17,200326,,,N*5F
$GNVTG,1.17,T,,M,5.29,N,9.81,K,N*25
$GNGGA,010505.000,,,,,0,0,,,M,,M,,*57
$GPGSA,A,1,,,,,,,,,,,,,,,*1E
$GLGSA,A,1,,,,,,,,,,,,,,,*02
$GNRMC,010505.000,V,,,,,5.06,3.22,200326,,,N*57
$GNVTG,3.22,T,,M,5.06,N,9.38,K,N*2E
$GNGGA,010506.000,,,,,0,0,,,M,,M,,*54
$GPGSA,A,1,,,,,,,,,,,,,,,*1E
$GLGSA,A,1,,,,,,,,,,,,,,,*02
$GPGSV,3,1,10,23,73,275,41,18,63,013,38,51,48,159,,15,44,070,38*72
$GPGSV,3,2,10,05,04,049,19,29,,,23,10,,,34,26,,,24*43
$GPGSV,3,3,10,13,,,18,16,,,19*7C
$GLGSV,2,1,07,70,60,059,43,85,54,052,34,71,,,34,76,,,*67
$GLGSV,2,2,07,75,,,,82,,,,65,,,*69
$GNRMC,010506.000,V,,,,,5.10,356.69,200326,,,N*5F
$GNVTG,356.69,T,,M,5.10,N,9.45,K,N*2F
$GNGGA,010507.000,,,,,0,0,,,M,,M,,*55
$GPGSA,A,1,,,,,,,,,,,,,,,*1E
$GLGSA,A,1,,,,,,,,,,,,,,,*02
$GNRMC,010507.000,V,,,,,5.09,352.96,200326,,,N*52
$GNVTG,352.96,T,,M,5.09,N,9.43,K,N*25
$GNGGA,010508.000,,,,,0,0,,,M,,M,,*5A
$GPGSA,A,1,,,,,,,,,,,,,,,*1E
$GLGSA,A,1,,,,,,,,,,,,,,,*02
$GNRMC,010508.000,V,,,,,3.89,344.61,200326,,,N*5C
$GNVTG,344.61,T,,M,3.89,N,7.20,K,N*2F
$GNGGA,010509.000,,,,,0,0,,,M,,M,,*5B
$GPGSA,A,1,,,,,,,,,,,,,,,*1E
$GLGSA,A,1,,,,,,,,,,,,,,,*02
$GNRMC,010509.000,V,,,,,2.47,340.26,200326,,,N*59
$GNVTG,340.26,T,,M,2.47,N,4.57,K,N*28
$GNGGA,010510.000,3410.5351,N,11913.5074,W,1,08,1.17,2.7,M,-33.9,M,,*42
$GPGSA,A,3,23,15,18,,,,,,,,,,1.48,1.17,0.91*0C
$GLGSA,A,3,85,71,76,70,86,,,,,,,,1.48,1.17,0.91*1F
$GNRMC,010510.000,A,3410.5351,N,11913.5074,W,1.19,0.77,200326,,,A*62
$GNVTG,0.77,T,,M,1.19,N,2.21,K,A*2B
$GNGGA,010511.000,3410.5359,N,11913.5073,W,1,08,1.17,2.5,M,-33.9,M,,*4E
$GPGSA,A,3,23,15,18,,,,,,,,,,1.48,1.17,0.91*0C
$GLGSA,A,3,85,71,76,70,86,,,,,,,,1.48,1.17,0.91*1F
$GPGSV,3,1,11,23,73,275,41,18,63,013,38,48,47,203,,15,44,070,38*78
$GPGSV,3,2,11,05,04,049,21,29,,,21,10,,,34,26,,,20*4F
$GPGSV,3,3,11,13,,,28,16,,,21,20,,,22*77
$GLGSV,2,1,07,70,60,059,41,85,54,052,37,71,44,179,33,86,31,323,31*63
$GLGSV,2,2,07,76,14,282,27,75,,,,69,,,27*53
$GNRMC,010511.000,A,3410.5359,N,11913.5073,W,3.41,16.02,200326,,,A*56
$GNVTG,16.02,T,,M,3.41,N,6.31,K,A*14
$GNGGA,010512.000,3410.5370,N,11913.5066,W,1,08,1.17,2.1,M,-33.9,M,,*46
$GPGSA,A,3,23,15,18,,,,,,,,,,1.48,1.17,0.91*0C
$GLGSA,A,3,85,71,76,70,86,,,,,,,,1.48,1.17,0.91*1F
$GNRMC,010512.000,A,3410.5370,N,11913.5066,W,5.83,35.28,200326,,,A*5B
$GNVTG,35.28,T,,M,5.83,N,10.81,K,A*29
$GNGGA,010513.000,3410.5384,N,11913.5048,W,1,08,1.30,1.9,M,-33.9,M,,*4E
$GPGSA,A,3,23,15,18,,,,,,,,,,2.52,1.30,2.16*0C
$GLGSA,A,3,85,71,76,70,86,,,,,,,,2.52,1.30,2.16*1F
$GNRMC,010513.000,A,3410.5384,N,11913.5048,W,8.35,51.85,200326,,,A*58
$GNVTG,51.85,T,,M,8.35,N,15.48,K,A*2C
$GNGGA,010514.000,3410.5398,N,11913.5017,W,1,08,1.17,1.8,M,-33.9,M,,*4A
$GPGSA,A,3,23,15,18,,,,,,,,,,1.48,1.17,0.91*0C
$GLGSA,A,3,85,71,76,70,86,,,,,,,,1.48,1.17,0.91*1F
$GNRMC,010514.000,A,3410.5398,N,11913.5017,W,11.84,63.40,200326,,,A*62
$GNVTG,63.40,T,,M,11.84,N,21.93,K,A*17
$GNGGA,010515.000,3410.5414,N,11913.4973,W,1,08,1.30,1.6,M,-33.9,M,,*49
$GPGSA,A,3,23,15,18,,,,,,,,,,2.52,1.30,2.16*0C
$GLGSA,A,3,85,71,76,70,86,,,,,,,,2.52,1.30,2.16*1F
$GNRMC,010515.000,A,3410.5414,N,11913.4973,W,15.25,68.17,200326,,,A*6C
$GNVTG,68.17,T,,M,15.25,N,28.25,K,A*15
$GNGGA,010516.000,3410.5416,N,11913.4904,W,1,08,1.30,1.4,M,-33.9,M,,*4A
$GPGSA,A,3,23,15,18,,,,,,,,,,2.52,1.30,2.16*0C
$GLGSA,A,3,85,71,76,70,86,,,,,,,,2.52,1.30,2.16*1F
$GPGSV,3,1,11,23,73,275,41,18,63,013,37,48,47,203,,15,44,070,38*77
$GPGSV,3,2,11,05,04,049,30,29,,,28,10,,,27,26,,,20*44
$GPGSV,3,3,11,13,,,26,16,,,29,20,,,26*75
$GLGSV,2,1,06,70,60,059,41,85,54,052,32,71,44,179,35,86,31,323,36*66
$GLGSV,2,2,06,76,14,282,33,75,,,*5D
$GNRMC,010516.000,A,3410.5416,N,11913.4904,W,20.81,84.21,200326,,,A*62
$GNVTG,84.21,T,,M,20.81,N,38.55,K,A*1C
$GNGGA,010517.000,3410.5414,N,11913.4822,W,1,08,1.30,1.1,M,-33.9,M,,*49
$GPGSA,A,3,23,15,18,,,,,,,,,,2.52,1.30,2.16*0C
$GLGSA,A,3,85,71,76,70,86,,,,,,,,2.52,1.30,2.16*1F
$GNRMC,010517.000,A,3410.5414,N,11913.4822,W,25.02,90.70,200326,,,A*6B
$GNVTG,90.70,T,,M,25.02,N,46.36,K,A*1F
$GNGGA,010518.000,3410.5414,N,11913.4727,W,1,08,1.30,1.4,M,-33.9,M,,*49
$GPGSA,A,3,23,15,18,,,,,,,,,,2.52,1.30,2.16*0C
$GLGSA,A,3,85,71,76,70,86,,,,,,,,2.52,1.30,2.16*1F
$GNRMC,010518.000,A,3410.5414,N,11913.4727,W,29.03,90.82,200326,,,A*6E
$GNVTG,90.82,T,,M,29.03,N,53.80,K,A*16
$GNGGA,010519.000,3410.5412,N,11913.4630,W,1,08,1.30,1.8,M,-33.9,M,,*45
$GPGSA,A,3,23,15,18,,,,,,,,,,2.52,1.30,2.16*0C
$GLGSA,A,3,85,71,76,70,86,,,,,,,,2.52,1.30,2.16*1F
$GNRMC,010519.000,A,3410.5412,N,11913.4630,W,28.77,91.22,200326,,,A*67
$GNVTG,91.22,T,,M,28.77,N,53.32,K,A*16
$GNGGA,010520.000,3410.5411,N,11913.4535,W,1,08,1.30,2.3,M,-33.9,M,,*42
$GPGSA,A,3,23,15,18,,,,,,,,,,2.52,1.30,2.16*0C
$GLGSA,A,3,85,71,76,70,86,,,,,,,,2.52,1.30,2.16*1F
$GNRMC,010520.000,A,3410.5411,N,11913.4535,W,27.70,90.43,200326,,,A*66
$GNVTG,90.43,T,,M,27.70,N,51.32,K,A*1A
$GNGGA,010521.000,3410.5411,N,11913.4445,W,1,08,1.17,2.6,M,-33.9,M,,*45
$GPGSA,A,3,23,15,18,,,,,,,,,,1.48,1.17,0.91*0C
$GLGSA,A,3,85,71,76,70,86,,,,,,,,1.48,1.17,0.91*1F
$GPGSV,3,1,11,23,73,275,40,18,63,013,38,48,47,203,31,15,44,070,34*77
$GPGSV,3,2,11,05,04,049,22,29,,,24,10,,,25,26,,,15*4F
$GPGSV,3,3,11,13,,,25,16,,,34,20,,,25*79
$GLGSV,2,1,06,70,60,059,45,85,54,052,22,71,44,179,37,86,31,323,37*60
$GLGSV,2,2,06,76,14,282,31,75,,,*5F
$GNRMC,010521.000,A,3410.5411,N,11913.4445,W,26.56,91.07,200326,,,A*65
$GNVTG,91.07,T,,M,26.56,N,49.21,K,A*15
$GNGGA,010522.000,3410.5410,N,11913.4357,W,1,08,1.17,2.9,M,-33.9,M,,*4C
$GPGSA,A,3,23,15,18,,,,,,,,,,1.48,1.17,0.91*0C
$GLGSA,A,3,85,71,76,70,86,,,,,,,,1.48,1.17,0.91*1F
$GNRMC,010522.000,A,3410.5410,N,11913.4357,W,25.73,90.53,200326,,,A*67
$GNVTG,90.53,T,,M,25.73,N,47.67,K,A*1D
$GNGGA,010523.000,3410.5410,N,11913.4272,W,1,08,1.17,3.0,M,-33.9,M,,*43
$GPGSA,A,3,23,15,18,,,,,,,,,,1.48,1.17,0.91*0C
$GLGSA,A,3,85,71,76,70,86,,,,,,,,1.48,1.17,0.91*1F
$GNRMC,010523.000,A,3410.5410,N,11913.4272,W,24.91,90.15,200326,,,A*6F
$GNVTG,90.15,T,,M,24.91,N,46.15,K,A*16
$GNGGA,010524.000,3410.5410,N,11913.4191,W,1,08,1.17,3.1,M,-33.9,M,,*4B
$GPGSA,A,3,23,15,18,,,,,,,,,,1.48,1.17,0.91*0C
$GLGSA,A,3,85,71,76,70,86,,,,,,,,1.48,1.17,0.91*1F
$GNRMC,010524.000,A,3410.5410,N,11913.4191,W,23.69,90.91,200326,,,A*6A
$GNVTG,90.91,T,,M,23.69,N,43.90,K,A*12
$GNGGA,010525.000,3410.5410,N,11913.4113,W,1,08,1.17,3.1,M,-33.9,M,,*40
$GPGSA,A,3,23,15,18,,,,,,,,,,1.48,1.17,0.91*0C
$GLGSA,A,3,85,71,76,70,86,,,,,,,,1.48,1.17,0.91*1F
$GNRMC,010525.000,A,3410.5410,N,11913.4113,W,23.10,90.54,200326,,,A*66
$GNVTG,90.54,T,,M,23.10,N,42.80,K,A*15
$GNGGA,010526.000,3410.5410,N,11913.4037,W,1,08,1.17,3.1,M,-33.9,M,,*44
$GPGSA,A,3,23,15,18,,,,,,,,,,1.48,1.17,0.91*0C
$GLGSA,A,3,85,71,76,70,86,,,,,,,,1.48,1.17,0.91*1F
$GPGSV,3,1,11,23,73,275,38,18,63,013,39,48,47,203,29,15,44,070,34*70
$GPGSV,3,2,11,05,04,049,20,29,,,28,10,,,20,26,,,16*47
$GPGSV,3,3,11,13,,,25,16,,,35,20,,,26*7B
$GLGSV,2,1,06,70,60,059,46,85,54,052,34,71,44,179,36,86,31,323,37*65
$GLGSV,2,2,06,76,14,282,32,75,,,*5C
$GNRMC,010526.000,A,3410.5410,N,11913.4037,W,22.20,90.63,200326,,,A*64
$GNVTG,90.63,T,,M,22.20,N,41.15,K,A*1C
$GNGGA,010527.000,3410.5409,N,11913.3964,W,1,08,1.17,2.9,M,-33.9,M,,*4C
$GPGSA,A,3,23,15,18,,,,,,,,,,1.48,1.17,0.91*0C
$GLGSA,A,3,85,71,76,70,86,,,,,,,,1.48,1.17,0.91*1F
$GNRMC,010527.000,A,3410.5409,N,11913.3964,W,21.45,91.96,200326,,,A*6E
$GNVTG,91.96,T,,M,21.45,N,39.75,K,A*1E
$GNGGA,010528.000,3410.5407,N,11913.3896,W,1,08,1.17,2.7,M,-33.9,M,,*4F
$GPGSA,A,3,23,15,18,,,,,,,,,,1.48,1.17,0.91*0C
$GLGSA,A,3,85,71,76,70,86,,,,,,,,1.48,1.17,0.91*1F
$GNRMC,010528.000,A,3410.5407,N,11913.3896,W,19.53,92.22,200326,,,A*63
$GNVTG,92.22,T,,M,19.53,N,36.19,K,A*1B
$GNGGA,010529.000,3410.5405,N,11913.3834,W,1,08,1.17,2.4,M,-33.9,M,,*47
$GPGSA,A,3,23,15,18,,,,,,,,,,1.48,1.17,0.91*0C
$GLGSA,A,3,85,71,76,70,86,,,,,,,,1.48,1.17,0.91*1F
$GNRMC,010529.000,A,3410.5405,N,11913.3834,W,17.40,91.22,200326,,,A*67
$GNVTG,91.22,T,,M,17.40,N,32.24,K,A*1E
$GNGGA,010530.000,3410.5403,N,11913.3781,W,1,08,1.17,2.3,M,-33.9,M,,*4F
$GPGSA,A,3,23,15,18,,,,,,,,,,1.48,1.17,0.91*0C
$GLGSA,A,3,85,71,76,70,86,,,,,,,,1.48,1.17,0.91*1F
$GNRMC,010530.000,A,3410.5403,N,11913.3781,W,14.67,92.02,200326,,,A*6F
$GNVTG,92.02,T,,M,14.67,N,27.19,K,A*13
$GNGGA,010531.000,3410.5401,N,11913.3736,W,1,08,1.18,2.1,M,-33.9,M,,*4D
$GPGSA,A,3,23,15,18,,,,,,,,,,1.48,1.18,0.91*03
$GLGSA,A,3,85,71,76,70,86,,,,,,,,1.48,1.18,0.91*10
$GPGSV,3,1,11,23,73,276,36,18,63,013,37,48,47,203,28,15,44,070,25*72
$GPGSV,3,2,11,05,04,049,19,29,,,21,10,,,23,26,,,19*48
$GPGSV,3,3,11,13,,,30,16,,,37,20,,,26*7D
$GLGSV,2,1,07,70,60,059,46,85,54,052,34,71,44,179,35,86,31,323,39*69
$GLGSV,2,2,07,76,14,282,27,69,14,028,,75,,,*69
$GNRMC,010531.000,A,3410.5401,N,11913.3736,W,12.27,92.39,200326,,,A*6A
$GNVTG,92.39,T,,M,12.27,N,22.74,K,A*17
$GNGGA,010532.000,3410.5401,N,11913.3698,W,1,08,1.18,2.0,M,-33.9,M,,*4A
$GPGSA,A,3,23,15,18,,,,,,,,,,1.48,1.18,0.91*03
$GLGSA,A,3,85,71,76,70,86,,,,,,,,1.48,1.18,0.91*10
$GNRMC,010532.000,A,3410.5401,N,11913.3698,W,10.36,88.36,200326,,,A*6A
$GNVTG,88.36,T,,M,10.36,N,19.21,K,A*19
$GNGGA,010533.000,3410.5401,N,11913.3667,W,1,08,1.18,1.9,M,-33.9,M,,*41
$GPGSA,A,3,23,15,18,,,,,,,,,,1.48,1.18,0.91*03
$GLGSA,A,3,85,71,76,70,86,,,,,,,,1.48,1.18,0.91*10
$GNRMC,010533.000,A,3410.5401,N,11913.3667,W,8.12,90.27,200326,,,A*5D
$GNVTG,90.27,T,,M,8.12,N,15.04,K,A*24
$GNGGA,010534.000,3410.5401,N,11913.3643,W,1,08,1.18,1.7,M,-33.9,M,,*4E
$GPGSA,A,3,23,15,18,,,,,,,,,,1.48,1.18,0.91*03
$GLGSA,A,3,85,71,76,70,86,,,,,,,,1.48,1.18,0.91*10
$GNRMC,010534.000,A,3410.5401,N,11913.3643,W,6.22,91.22,200326,,,A*55
$GNVTG,91.22,T,,M,6.22,N,11.52,K,A*2A
$GNGGA,010535.000,3410.5400,N,11913.3626,W,1,08,1.18,1.4,M,-33.9,M,,*4E
$GPGSA,A,3,23,15,18,,,,,,,,,,1.48,1.18,0.91*03
$GLGSA,A,3,85,71,76,70,86,,,,,,,,1.48,1.18,0.91*10
$GNRMC,010535.000,A,3410.5400,N,11913.3626,W,4.31,94.87,200326,,,A*5C
$GNVTG,94.87,T,,M,4.31,N,7.99,K,A*10
$GNGGA,010536.000,3410.5399,N,11913.3614,W,1,08,1.18,1.2,M,-33.9,M,,*4D
$GPGSA,A,3,23,15,18,,,,,,,,,,1.49,1.18,0.91*02
$GLGSA,A,3,85,71,76,70,86,,,,,,,,1.49,1.18,0.91*11
$GPGSV,3,1,11,23,73,276,36,18,63,013,38,48,47,203,29,15,44,070,27*7E
$GPGSV,3,2,11,05,04,049,17,29,,,22,10,,,23,26,,,18*44
$GPGSV,3,3,11,13,,,28,16,,,32,20,,,26*71
$GLGSV,2,1,07,70,60,059,46,85,54,052,32,71,44,179,34,86,31,323,38*6F
$GLGSV,2,2,07,76,14,282,30,69,14,028,38,84,,,*6A
$GNRMC,010536.000,A,3410.5399,N,11913.3614,W,2.91,94.87,200326,,,A*55
$GNVTG,94.87,T,,M,2.91,N,5.39,K,A*14
$GNGGA,010537.000,3410.5400,N,11913.3606,W,1,08,1.18,0.9,M,-33.9,M,,*42
$GPGSA,A,3,23,15,18,,,,,,,,,,1.48,1.18,0.91*03
$GLGSA,A,3,85,71,76,70,86,,,,,,,,1.48,1.18,0.91*10
$GNRMC,010537.000,A,3410.5400,N,11913.3606,W,1.99,94.87,200326,,,A*5B
$GNVTG,94.87,T,,M,1.99,N,3.68,K,A*1D
$GNGGA,010538.000,3410.5400,N,11913.3600,W,1,08,1.18,0.7,M,-33.9,M,,*45
$GPGSA,A,3,23,15,18,,,,,,,,,,1.49,1.18,0.91*02
$GLGSA,A,3,85,71,76,70,86,,,,,,,,1.49,1.18,0.91*11
$GNRMC,010538.000,A,3410.5400,N,11913.3600,W,1.62,94.87,200326,,,A*56
$GNVTG,94.87,T,,M,1.62,N,3.01,K,A*16
$GNGGA,010539.000,3410.5400,N,11913.3595,W,1,08,1.18,0.5,M,-33.9,M,,*49
$GPGSA,A,3,23,15,18,,,,,,,,,,1.48,1.18,0.91*03
$GLGSA,A,3,85,71,76,70,86,,,,,,,,1.48,1.18,0.91*10
$GNRMC,010539.000,A,3410.5400,N,11913.3595,W,1.41,94.87,200326,,,A*59
$GNVTG,94.87,T,,M,1.41,N,2.62,K,A*13
$GNGGA,010540.000,3410.5400,N,11913.3591,W,1,08,1.18,0.4,M,-33.9,M,,*42
$GPGSA,A,3,23,15,18,,,,,,,,,,1.49,1.18,0.91*02
$GLGSA,A,3,85,71,76,70,86,,,,,,,,1.49,1.18,0.91*11
$GNRMC,010540.000,A,3410.5400,N,11913.3591,W,1.16,94.87,200326,,,A*51
$GNVTG,94.87,T,,M,1.16,N,2.15,K,A*11
$GNGGA,010541.000,3410.5400,N,11913.3589,W,1,08,1.18,0.3,M,-33.9,M,,*4D
$GPGSA,A,3,23,15,18,,,,,,,,,,1.49,1.18,0.91*02
$GLGSA,A,3,85,71,76,70,86,,,,,,,,1.49,1.18,0.91*11
$GPGSV,3,1,11,23,73,276,36,18,63,013,38,48,47,203,31,15,44,070,31*70
$GPGSV,3,2,11,29,42,143,21,05,04,049,17,10,,,25,26,,,19*70
$GPGSV,3,3,11,13,,,29,16,,,31,20,,,27*72
$GLGSV,2,1,07,70,60,059,46,85,54,052,30,71,44,179,35,86,31,323,38*6C
$GLGSV,2,2,07,76,14,282,30,69,14,028,38,84,,,*6A
$GNRMC,010541.000,A,3410.5400,N,11913.3589,W,0.89,94.87,200326,,,A*5E
$GNVTG,94.87,T,,M,0.89,N,1.65,K,A*12
$GNGGA,010542.000,3410.5400,N,11913.3587,W,1,08,1.18,0.2,M,-33.9,M,,*41
$GPGSA,A,3,23,15,18,,,,,,,,,,1.49,1.18,0.91*02
$GLGSA,A,3,85,71,76,70,86,,,,,,,,1.49,1.18,0.91*11
$GNRMC,010542.000,A,3410.5400,N,11913.3587,W,0.62,94.87,200326,,,A*56
$GNVTG,94.87,T,,M,0.62,N,1.15,K,A*10
$GNGGA,010543.000,3410.5400,N,11913.3587,W,1,08,1.18,0.2,M,-33.9,M,,*40
$GPGSA,A,3,23,15,18,,,,,,,,,,1.49,1.18,0.91*02
$GLGSA,A,3,85,71,76,70,86,,,,,,,,1.49,1.18,0.91*11
$GNRMC,010543.000,A,3410.5400,N,11913.3587,W,0.44,94.87,200326,,,A*53
$GNVTG,94.87,T,,M,0.44,N,0.81,K,A*18
$GNGGA,010544.000,3410.5399,N,11913.3587,W,1,08,1.18,0.4,M,-33.9,M,,*46
$GPGSA,A,3,23,15,18,,,,,,,,,,1.49,1.18,0.91*02
$GLGSA,A,3,85,71,76,70,86,,,,,,,,1.49,1.18,0.91*11
$GNRMC,010544.000,A,3410.5399,N,11913.3587,W,0.24,94.87,200326,,,A*55
$GNVTG,94.87,T,,M,0.24,N,0.45,K,A*16
$GNGGA,010545.000,3410.5399,N,11913.3588,W,1,08,1.18,0.5,M,-33.9,M,,*49
$GPGSA,A,3,23,15,18,,,,,,,,,,1.49,1.18,0.91*02
$GLGSA,A,3,85,71,76,70,86,,,,,,,,1.49,1.18,0.91*11
$GNRMC,010545.000,A,3410.5399,N,11913.3588,W,0.10,94.87,200326,,,A*5C
$GNVTG,94.87,T,,M,0.10,N,0.19,K,A*18
$GNGGA,010546.000,3410.5398,N,11913.3589,W,1,08,1.18,0.6,M,-33.9,M,,*49
$GPGSA,A,3,23,15,18,,,,,,,,,,1.49,1.18,0.91*02
$GLGSA,A,3,85,71,76,70,86,,,,,,,,1.49,1.18,0.91*11
$GPGSV,3,1,11,23,73,276,36,18,63,013,38,48,47,203,32,15,44,070,32*70
$GPGSV,3,2,11,29,42,143,20,05,04,049,14,10,,,27,26,,,21*7B
$GPGSV,3,3,11,13,,,28,16,,,29,20,,,26*7B
$GLGSV,2,1,07,70,60,059,46,85,54,052,32,71,44,179,30,86,31,323,38*6B
$GLGSV,2,2,07,76,14,282,28,69,14,028,37,84,,,*6C
$GNRMC,010546.000,A,3410.5398,N,11913.3589,W,0.17,94.87,200326,,,A*58
$GNVTG,94.87,T,,M,0.17,N,0.31,K,A*15
$GNGGA,010547.000,3410.5398,N,11913.3590,W,1,08,1.18,0.6,M,-33.9,M,,*40
$GPGSA,A,3,23,15,18,,,,,,,,,,1.49,1.18,0.91*02
$GLGSA,A,3,85,71,76,70,86,,,,,,,,1.49,1.18,0.91*11
$GNRMC,010547.000,A,3410.5398,N,11913.3590,W,0.17,94.87,200326,,,A*51
$GNVTG,94.87,T,,M,0.17,N,0.32,K,A*16
$GNGGA,010548.000,3410.5397,N,11913.3590,W,1,08,1.18,0.6,M,-33.9,M,,*40
$GPGSA,A,3,23,15,18,,,,,,,,,,1.49,1.18,0.91*02
$GLGSA,A,3,85,71,76,70,86,,,,,,,,1.49,1.18,0.91*11
$GNRMC,010548.000,A,3410.5397,N,11913.3590,W,0.16,94.87,200326,,,A*50
$GNVTG,94.87,T,,M,0.16,N,0.30,K,A*15
$GNGGA,010549.000,3410.5398,N,11913.3590,W,1,09,1.13,0.7,M,-33.9,M,,*45
$GPGSA,A,3,23,15,18,16,,,,,,,,,1.45,1.13,0.91*02
$GLGSA,A,3,85,71,76,70,86,,,,,,,,1.45,1.13,0.91*16
$GNRMC,010549.000,A,3410.5398,N,11913.3590,W,0.08,94.87,200326,,,A*51
$GNVTG,94.87,T,,M,0.08,N,0.14,K,A*1C
$GNGGA,010550.000,3410.5399,N,11913.3590,W,1,09,1.13,0.7,M,-33.9,M,,*4C
$GPGSA,A,3,23,15,18,16,,,,,,,,,1.45,1.13,0.91*02
$GLGSA,A,3,85,71,76,70,86,,,,,,,,1.45,1.13,0.91*16
$GNRMC,010550.000,A,3410.5399,N,11913.3590,W,0.18,94.87,200326,,,A*59
$GNVTG,94.87,T,,M,0.18,N,0.33,K,A*18
$GNGGA,010551.000,3410.5399,N,11913.3590,W,1,09,1.13,0.8,M,-33.9,M,,*42
$GPGSA,A,3,23,15,18,16,,,,,,,,,1.45,1.13,0.91*02
$GLGSA,A,3,85,71,76,70,86,,,,,,,,1.45,1.13,0.91*16
$GPGSV,3,1,11,23,73,276,37,18,63,013,38,48,47,203,32,15,44,070,32*71
$GPGSV,3,2,11,29,42,143,21,16,25,289,29,05,04,049,17,10,,,27*46
$GPGSV,3,3,11,26,,,20,13,,,28,20,,,24*73
$GLGSV,2,1,07,70,60,059,46,85,54,052,33,71,44,179,28,86,31,323,38*63
$GLGSV,2,2,07,76,14,282,27,69,14,028,36,84,,,*62
$GNRMC,010551.000,A,3410.5399,N,11913.3590,W,0.07,94.87,200326,,,A*56
$GNVTG,94.87,T,,M,0.07,N,0.13,K,A*14
$GNGGA,010552.000,3410.5399,N,11913.3591,W,1,09,1.13,0.9,M,-33.9,M,,*41
$GPGSA,A,3,23,15,18,16,,,,,,,,,1.45,1.13,0.91*02
$GLGSA,A,3,85,71,76,70,86,,,,,,,,1.45,1.13,0.91*16
$GNRMC,010552.000,A,3410.5399,N,11913.3591,W,0.14,94.87,200326,,,A*56
$GNVTG,94.87,T,,M,0.14,N,0.26,K,A*10
$GNGGA,010553.000,3410.5399,N,11913.3592,W,1,09,1.13,1.0,M,-33.9,M,,*4B
$GPGSA,A,3,23,15,18,16,,,,,,,,,1.45,1.13,0.91*02
$GLGSA,A,3,85,71,76,70,86,,,,,,,,1.45,1.13,0.91*16
$GNRMC,010553.000,A,3410.5399,N,11913.3592,W,0.15,94.87,200326,,,A*55
$GNVTG,94.87,T,,M,0.15,N,0.28,K,A*1F
$GNGGA,010554.000,3410.5400,N,11913.3591,W,1,09,1.13,1.1,M,-33.9,M,,*49
$GPGSA,A,3,23,15,18,16,,,,,,,,,1.45,1.13,0.91*02
$GLGSA,A,3,85,71,76,70,86,,,,,,,,1.45,1.13,0.91*16
$GNRMC,010554.000,A,3410.5400,N,11913.3591,W,0.14,94.87,200326,,,A*57
$GNVTG,94.87,T,,M,0.14,N,0.26,K,A*10
$GNGGA,010555.000,3410.5400,N,11913.3592,W,1,09,1.13,1.2,M,-33.9,M,,*48
$GPGSA,A,3,23,15,18,16,,,,,,,,,1.45,1.13,0.91*02
$GLGSA,A,3,85,71,76,70,86,,,,,,,,1.45,1.13,0.91*16
$GNRMC,010555.000,A,3410.5400,N,11913.3592,W,0.14,94.87,200326,,,A*55
$GNVTG,94.87,T,,M,0.14,N,0.26,K,A*10
$GNGGA,010556.000,3410.5400,N,11913.3592,W,1,09,1.13,1.2,M,-33.9,M,,*4B
$GPGSA,A,3,23,15,18,16,,,,,,,,,1.45,1.13,0.91*02
$GLGSA,A,3,85,71,76,70,86,,,,,,,,1.45,1.13,0.91*16
$GPGSV,3,1,11,23,73,276,36,18,63,013,38,48,47,203,32,15,44,070,31*73
$GPGSV,3,2,11,29,42,143,22,16,25,289,29,05,04,049,16,10,,,28*4B
$GPGSV,3,3,11,26,,,19,13,,,26,20,,,25*76
$GLGSV,2,1,07,70,60,059,46,85,54,052,32,71,44,179,29,86,31,323,38*63
$GLGSV,2,2,07,76,14,282,27,69,14,028,36,84,,,*62
$GNRMC,010556.000,A,3410.5400,N,11913.3592,W,0.14,94.87,200326,,,A*56
$GNVTG,94.87,T,,M,0.14,N,0.27,K,A*11
$GNGGA,010557.000,3410.5398,N,11913.3593,W,1,09,1.13,1.3,M,-33.9,M,,*4C
$GPGSA,A,3,23,15,18,16,,,,,,,,,1.45,1.13,0.91*02
$GLGSA,A,3,85,71,76,70,86,,,,,,,,1.45,1.13,0.91*16
$GNRMC,010557.000,A,3410.5398,N,11913.3593,W,0.25,94.87,200326,,,A*52
$GNVTG,94.87,T,,M,0.25,N,0.46,K,A*14
$GNGGA,010558.000,3410.5396,N,11913.3593,W,1,09,1.13,1.3,M,-33.9,M,,*4D
$GPGSA,A,3,23,15,18,16,,,,,,,,,1.45,1.13,0.91*02
$GLGSA,A,3,85,71,76,70,86,,,,,,,,1.45,1.13,0.91*16
$GNRMC,010558.000,A,3410.5396,N,11913.3593,W,0.36,94.87,200326,,,A*51
$GNVTG,94.87,T,,M,0.36,N,0.67,K,A*15
$GNGGA,010559.000,3410.5395,N,11913.3594,W,1,09,1.13,1.4,M,-33.9,M,,*4F
$GPGSA,A,3,23,15,18,16,,,,,,,,,1.45,1.13,0.91*02
$GLGSA,A,3,85,71,76,70,86,,,,,,,,1.45,1.13,0.91*16
$GNRMC,010559.000,A,3410.5395,N,11913.3594,W,0.44,94.87,200326,,,A*51
$GNVTG,94.87,T,,M,0.44,N,0.81,K,A*18
$GNGGA,010600.000,3410.5396,N,11913.3594,W,1,09,1.13,1.4,M,-33.9,M,,*43
$GPGSA,A,3,23,15,18,16,,,,,,,,,1.45,1.13,0.91*02
$GLGSA,A,3,85,71,76,70,86,,,,,,,,1.45,1.13,0.91*16
$GNRMC,010600.000,A,3410.5396,N,11913.3594,W,0.20,94.87,200326,,,A*5F
$GNVTG,94.87,T,,M,0.20,N,0.36,K,A*16
$GNGGA,010601.000,3410.5396,N,11913.3595,W,1,10,1.05,1.5,M,-33.9,M,,*4D
$GPGSA,A,3,23,15,18,16,20,,,,,,,,1.35,1.05,0.85*05
$GLGSA,A,3,85,71,76,70,86,,,,,,,,1.35,1.05,0.85*13
$GPGSV,3,1,11,23,73,276,37,18,63,013,38,48,47,203,32,15,44,070,32*71
$GPGSV,3,2,11,29,42,143,23,16,25,289,29,20,24,051,25,05,04,049,17*77
$GPGSV,3,3,11,10,,,28,26,,,20,13,,,27*73
$GLGSV,2,1,07,70,60,059,46,85,54,052,32,71,44,179,29,86,31,323,38*63
$GLGSV,2,2,07,76,14,282,28,69,14,028,36,84,,,*6D
$GNRMC,010601.000,A,3410.5396,N,11913.3595,W,0.07,94.87,200326,,,A*5A
$GNVTG,94.87,T,,M,0.07,N,0.13,K,A*14
$GNGGA,010602.000,3410.5396,N,11913.3595,W,1,10,1.05,1.4,M,-33.9,M,,*4F
$GPGSA,A,3,23,15,18,16,20,,,,,,,,1.35,1.05,0.85*05
$GLGSA,A,3,85,71,76,70,86,,,,,,,,1.35,1.05,0.85*13
$GNRMC,010602.000,A,3410.5396,N,11913.3595,W,0.72,94.87,200326,,,A*5B
$GNVTG,94.87,T,,M,0.72,N,1.34,K,A*12
$GNGGA,010603.000,3410.5396,N,11913.3594,W,1,10,1.05,1.5,M,-33.9,M,,*4E
$GPGSA,A,3,23,15,18,16,20,,,,,,,,1.35,1.05,0.85*05
$GLGSA,A,3,85,71,76,70,86,,,,,,,,1.35,1.05,0.85*13
$GNRMC,010603.000,A,3410.5396,N,11913.3594,W,0.94,94.87,200326,,,A*53
$GNVTG,94.87,T,,M,0.94,N,1.75,K,A*1F
$GNGGA,010604.000,3410.5398,N,11913.3594,W,1,10,1.05,1.7,M,-33.9,M,,*45
$GPGSA,A,3,23,15,18,16,20,,,,,,,,1.35,1.05,0.85*05
$GLGSA,A,3,85,71,76,70,86,,,,,,,,1.35,1.05,0.85*13
$GNRMC,010604.000,A,3410.5398,N,11913.3594,W,0.64,94.87,200326,,,A*55
$GNVTG,94.87,T,,M,0.64,N,1.18,K,A*1B
$GNGGA,010605.000,3410.5399,N,11913.3594,W,1,10,1.05,1.8,M,-33.9,M,,*4A
$GPGSA,A,3,23,15,18,16,20,,,,,,,,1.35,1.05,0.85*05
$GLGSA,A,3,85,71,76,70,86,,,,,,,,1.35,1.05,0.85*13
$GNRMC,010605.000,A,3410.5399,N,11913.3594,W,0.14,94.87,200326,,,A*52
$GNVTG,94.87,T,,M,0.14,N,0.27,K,A*11
$GNGGA,010606.000,3410.5400,N,11913.3593,W,1,10,1.05,1.7,M,-33.9,M,,*46
$GPGSA,A,3,23,15,18,16,20,,,,,,,,1.35,1.05,0.85*05
$GLGSA,A,3,85,71,76,70,86,,,,,,,,1.35,1.05,0.85*13
$GPGSV,3,1,11,23,73,276,37,18,63,013,38,48,47,203,31,15,44,070,32*72
$GPGSV,3,2,11,29,42,143,20,16,25,289,27,20,24,051,25,05,04,049,15*78
$GPGSV,3,3,11,10,,,28,26,,,21,13,,,30*74
$GLGSV,2,1,07,70,60,059,46,85,54,052,32,71,44,179,29,86,31,323,38*63
$GLGSV,2,2,07,76,14,282,29,69,14,028,37,84,,,*6D
$GNRMC,010606.000,A,3410.5400,N,11913.3593,W,0.59,94.87,200326,,,A*58
$GNVTG,94.87,T,,M,0.59,N,1.10,K,A*1D
$GNGGA,010607.000,3410.5399,N,11913.3593,W,1,10,1.05,1.6,M,-33.9,M,,*41
$GPGSA,A,3,23,15,18,16,20,,,,,,,,1.35,1.05,0.85*05
$GLGSA,A,3,85,71,76,70,86,,,,,,,,1.35,1.05,0.85*13
$GNRMC,010607.000,A,3410.5399,N,11913.3593,W,0.37,94.87,200326,,,A*56
$GNVTG,94.87,T,,M,0.37,N,0.68,K,A*1B
$GNGGA,010608.000,3410.5398,N,11913.3594,W,1,10,1.05,1.6,M,-33.9,M,,*48
$GPGSA,A,3,23,15,18,16,20,,,,,,,,1.35,1.05,0.85*05
$GLGSA,A,3,85,71,76,70,86,,,,,,,,1.35,1.05,0.85*13
$GNRMC,010608.000,A,3410.5398,N,11913.3594,W,0.30,94.87,200326,,,A*58
$GNVTG,94.87,T,,M,0.30,N,0.55,K,A*12
$GNGGA,010609.000,3410.5398,N,11913.3594,W,1,10,1.05,1.5,M,-33.9,M,,*4A
$GPGSA,A,3,23,15,18,16,20,,,,,,,,1.35,1.05,0.85*05
$GLGSA,A,3,85,71,76,70,86,,,,,,,,1.35,1.05,0.85*13
$GNRMC,010609.000,A,3410.5398,N,11913.3594,W,0.63,94.87,200326,,,A*5F
$GNVTG,94.87,T,,M,0.63,N,1.17,K,A*13
$GNGGA,010610.000,3410.5398,N,11913.3594,W,1,11,0.99,1.6,M,-33.9,M,,*44
$GPGSA,A,3,23,15,18,16,20,,,,,,,,1.28,0.99,0.82*0A
$GLGSA,A,3,85,71,76,70,86,69,,,,,,,1.28,0.99,0.82*13
$GNRMC,010610.000,A,3410.5398,N,11913.3594,W,0.27,94.87,200326,,,A*57
$GNVTG,94.87,T,,M,0.27,N,0.50,K,A*11
$GNGGA,010611.000,3410.5399,N,11913.3593,W,1,11,0.99,1.7,M,-33.9,M,,*42
$GPGSA,A,3,23,15,18,16,20,,,,,,,,1.28,0.99,0.82*0A
$GLGSA,A,3,85,71,76,70,86,69,,,,,,,1.28,0.99,0.82*13
$GPGSV,3,1,11,23,73,276,37,18,63,013,38,48,47,203,30,15,44,070,33*72
$GPGSV,3,2,11,29,42,143,22,16,25,289,28,20,24,051,26,05,04,049,16*75
$GPGSV,3,3,11,10,,,28,26,,,20,13,,,29*7D
$GLGSV,2,1,06,70,60,059,46,85,54,052,32,71,44,179,30,86,31,323,38*6A
$GLGSV,2,2,06,69,14,028,37,76,14,282,29*60
$GNRMC,010611.000,A,3410.5399,N,11913.3593,W,0.12,94.87,200326,,,A*56
$GNVTG,94.87,T,,M,0.12,N,0.22,K,A*12
$GNGGA,010612.000,3410.5399,N,11913.3593,W,1,11,0.99,1.8,M,-33.9,M,,*4E
$GPGSA,A,3,23,15,18,16,20,,,,,,,,1.28,0.99,0.82*0A
$GLGSA,A,3,85,71,76,70,86,69,,,,,,,1.28,0.99,0.82*13
$GNRMC,010612.000,A,3410.5399,N,11913.3593,W,0.34,94.87,200326,,,A*51
$GNVTG,94.87,T,,M,0.34,N,0.63,K,A*13
$GNGGA,010613.000,3410.5398,N,11913.3593,W,1,11,0.99,1.7,M,-33.9,M,,*41
$GPGSA,A,3,23,15,18,16,20,,,,,,,,1.28,0.99,0.82*0A
$GLGSA,A,3,85,71,76,70,86,69,,,,,,,1.28,0.99,0.82*13
$GNRMC,010613.000,A,3410.5398,N,11913.3593,W,0.30,94.87,200326,,,A*55
$GNVTG,94.87,T,,M,0.30,N,0.55,K,A*12
$GNGGA,010614.000,3410.5398,N,11913.3593,W,1,11,0.99,1.7,M,-33.9,M,,*46
$GPGSA,A,3,23,15,18,16,20,,,,,,,,1.28,0.99,0.82*0A
$GLGSA,A,3,85,71,76,70,86,69,,,,,,,1.28,0.99,0.82*13
$GNRMC,010614.000,A,3410.5398,N,11913.3593,W,0.29,94.87,200326,,,A*5A
$GNVTG,94.87,T,,M,0.29,N,0.53,K,A*1C
$GNGGA,010615.000,3410.5397,N,11913.3593,W,1,11,0.99,1.7,M,-33.9,M,,*48
$GPGSA,A,3,23,15,18,16,20,,,,,,,,1.28,0.99,0.82*0A
$GLGSA,A,3,85,71,76,70,86,69,,,,,,,1.28,0.99,0.82*13
$GNRMC,010615.000,A,3410.5397,N,11913.3593,W,0.15,94.87,200326,,,A*5B
$GNVTG,94.87,T,,M,0.15,N,0.27,K,A*10
$GNGGA,010616.000,3410.5397,N,11913.3593,W,1,11,0.99,1.7,M,-33.9,M,,*4B
$GPGSA,A,3,23,15,18,16,20,,,,,,,,1.28,0.99,0.82*0A
$GLGSA,A,3,85,71,76,70,86,69,,,,,,,1.28,0.99,0.82*13
$GPGSV,3,1,11,23,73,276,37,18,63,013,38,48,47,203,30,15,44,070,32*73
$GPGSV,3,2,11,29,42,143,22,16,25,289,28,20,24,051,26,05,04,049,17*74
$GPGSV,3,3,11,10,,,29,26,,,18,13,,,30*7F
$GLGSV,2,1,07,70,60,059,46,85,54,052,31,71,44,179,30,86,31,323,38*68
$GLGSV,2,2,07,69,14,028,37,76,14,282,29,75,04,231,*57
$GNRMC,010616.000,A,3410.5397,N,11913.3593,W,0.16,94.87,200326,,,A*5B
$GNVTG,94.87,T,,M,0.16,N,0.29,K,A*1D
$GNGGA,010617.000,3410.5397,N,11913.3593,W,1,11,0.99,1.7,M,-33.9,M,,*4A
$GPGSA,A,3,23,15,18,16,20,,,,,,,,1.28,0.99,0.82*0A
$GLGSA,A,3,85,71,76,70,86,69,,,,,,,1.28,0.99,0.82*13
$GNRMC,010617.000,A,3410.5397,N,11913.3593,W,0.17,94.87,200326,,,A*5B
$GNVTG,94.87,T,,M,0.17,N,0.32,K,A*16
$GNGGA,010618.000,3410.5397,N,11913.3592,W,1,11,0.99,1.7,M,-33.9,M,,*44
$GPGSA,A,3,23,15,18,16,20,,,,,,,,1.28,0.99,0.82*0A
$GLGSA,A,3,85,71,76,70,86,69,,,,,,,1.28,0.99,0.82*13
$GNRMC,010618.000,A,3410.5397,N,11913.3592,W,0.07,94.87,200326,,,A*54
$GNVTG,94.87,T,,M,0.07,N,0.14,K,A*13
$GNGGA,010619.000,3410.5397,N,11913.3593,W,1,11,0.99,1.7,M,-33.9,M,,*44
$GPGSA,A,3,23,15,18,16,20,,,,,,,,1.28,0.99,0.82*0A
$GLGSA,A,3,85,71,76,70,86,69,,,,,,,1.28,0.99,0.82*13
$GNRMC,010619.000,A,3410.5397,N,11913.3593,W,0.01,94.87,200326,,,A*52
$GNVTG,94.87,T,,M,0.01,N,0.02,K,A*12
$GNGGA,010620.000,3410.5397,N,11913.3593,W,1,11,0.99,1.7,M,-33.9,M,,*4E
$GPGSA,A,3,23,15,18,16,20,,,,,,,,1.28,0.99,0.82*0A
$GLGSA,A,3,85,71,76,70,86,69,,,,,,,1.28,0.99,0.82*13
$GNRMC,010620.000,A,3410.5397,N,11913.3593,W,0.05,94.87,200326,,,A*5C
$GNVTG,94.87,T,,M,0.05,N,0.10,K,A*15
$GNGGA,010621.000,3410.5397,N,11913.3593,W,1,11,0.99,1.7,M,-33.9,M,,*4F
$GPGSA,A,3,23,15,18,16,20,,,,,,,,1.28,0.99,0.82*0A
$GLGSA,A,3,85,71,76,70,86,69,,,,,,,1.28,0.99,0.82*13
$GPGSV,3,1,11,23,73,276,38,18,63,013,39,48,47,203,31,15,44,070,31*7F
$GPGSV,3,2,11,29,42,143,25,16,25,289,29,20,24,051,27,05,04,049,17*73
$GPGSV,3,3,11,10,,,27,26,,,20,13,,,28*73
$GLGSV,2,1,07,70,60,059,46,85,54,052,28,71,44,179,28,86,31,323,39*68
$GLGSV,2,2,07,69,14,028,36,76,14,282,30,75,04,231,*5E
$GNRMC,010621.000,A,3410.5397,N,11913.3593,W,0.08,94.87,200326,,,A*50
$GNVTG,94.87,T,,M,0.08,N,0.15,K,A*1D
$GNGGA,010622.000,3410.5397,N,11913.3593,W,1,11,0.99,1.7,M,-33.9,M,,*4C
$GPGSA,A,3,23,15,18,16,20,,,,,,,,1.28,0.99,0.82*0A
$GLGSA,A,3,85,71,76,70,86,69,,,,,,,1.28,0.99,0.82*13
$GNRMC,010622.000,A,3410.5397,N,11913.3593,W,0.15,94.87,200326,,,A*5F
$GNVTG,94.87,T,,M,0.15,N,0.27,K,A*10
$GNGGA,010623.000,3410.5397,N,11913.3593,W,1,11,0.99,1.7,M,-33.9,M,,*4D
$GPGSA,A,3,23,15,18,16,20,,,,,,,,1.28,0.99,0.82*0A
$GLGSA,A,3,85,71,76,70,86,69,,,,,,,1.28,0.99,0.82*13
$GNRMC,010623.000,A,3410.5397,N,11913.3593,W,0.46,94.87,200326,,,A*58
$GNVTG,94.87,T,,M,0.46,N,0.86,K,A*1D
$GNGGA,010624.000,3410.5396,N,11913.3592,W,1,11,0.99,1.6,M,-33.9,M,,*4B
$GPGSA,A,3,23,15,18,16,20,,,,,,,,1.28,0.99,0.82*0A
$GLGSA,A,3,85,71,76,70,86,69,,,,,,,1.28,0.99,0.82*13
$GNRMC,010624.000,A,3410.5396,N,11913.3592,W,1.44,94.87,200326,,,A*5C
$GNVTG,94.87,T,,M,1.44,N,2.67,K,A*13
$GNGGA,010625.000,3410.5395,N,11913.3585,W,1,12,0.97,1.6,M,-33.9,M,,*42
$GPGSA,A,3,23,15,18,13,16,20,,,,,,,1.26,0.97,0.80*0A
$GLGSA,A,3,85,71,76,70,86,69,,,,,,,1.26,0.97,0.80*11
$GNRMC,010625.000,A,3410.5395,N,11913.3585,W,2.04,94.87,200326,,,A*5F
$GNVTG,94.87,T,,M,2.04,N,3.78,K,A*1B
$GNGGA,010626.000,3410.5396,N,11913.3576,W,1,12,0.97,1.7,M,-33.9,M,,*4F
$GPGSA,A,3,23,15,18,13,16,20,,,,,,,1.26,0.97,0.80*0A
$GLGSA,A,3,85,71,76,70,86,69,,,,,,,1.26,0.97,0.80*11
$GPGSV,3,1,11,23,73,276,39,18,63,013,39,48,47,203,29,15,44,070,30*76
$GPGSV,3,2,11,29,42,143,24,16,25,289,31,20,24,051,28,13,19,049,27*7C
$GPGSV,3,3,11,05,04,049,15,10,,,27,26,,,19*49
$GLGSV,2,1,08,70,60,059,45,85,54,052,18,71,44,179,28,86,31,323,38*66
$GLGSV,2,2,08,69,14,028,37,76,14,282,31,77,05,326,,75,04,231,*63
$GNRMC,010626.000,A,3410.5396,N,11913.3576,W,2.49,92.87,200326,,,A*5C
$GNVTG,92.87,T,,M,2.49,N,4.62,K,A*18
$GNGGA,010627.000,3410.5395,N,11913.3566,W,1,12,0.97,1.7,M,-33.9,M,,*4C
$GPGSA,A,3,23,15,18,13,16,20,,,,,,,1.26,0.97,0.80*0A
$GLGSA,A,3,85,71,76,70,86,69,,,,,,,1.26,0.97,0.80*11
$GNRMC,010627.000,A,3410.5395,N,11913.3566,W,3.39,98.24,200326,,,A*5A
$GNVTG,98.24,T,,M,3.39,N,6.28,K,A*11
$GNGGA,010628.000,3410.5395,N,11913.3553,W,1,12,0.97,1.7,M,-33.9,M,,*45
$GPGSA,A,3,23,15,18,13,16,20,,,,,,,1.26,0.97,0.80*0A
$GLGSA,A,3,85,71,76,70,86,69,,,,,,,1.26,0.97,0.80*11
$GNRMC,010628.000,A,3410.5395,N,11913.3553,W,4.75,89.18,200326,,,A*53
$GNVTG,89.18,T,,M,4.75,N,8.80,K,A*1D
$GNGGA,010629.000,3410.5395,N,11913.3534,W,1,12,1.04,1.8,M,-33.9,M,,*41
$GPGSA,A,3,23,15,18,13,16,20,,,,,,,1.68,1.04,1.32*03
$GLGSA,A,3,85,71,76,70,86,69,,,,,,,1.68,1.04,1.32*18
$GNRMC,010629.000,A,3410.5395,N,11913.3534,W,6.27,91.79,200326,,,A*58
$GNVTG,91.79,T,,M,6.27,N,11.62,K,A*22
$GNGGA,010630.000,3410.5395,N,11913.3511,W,1,12,1.04,1.8,M,-33.9,M,,*4E
$GPGSA,A,3,23,15,18,13,16,20,,,,,,,1.68,1.04,1.32*03
$GLGSA,A,3,85,71,76,70,86,69,,,,,,,1.68,1.04,1.32*18
$GNRMC,010630.000,A,3410.5395,N,11913.3511,W,7.57,89.46,200326,,,A*54
$GNVTG,89.46,T,,M,7.57,N,14.03,K,A*23
$GNGGA,010631.000,3410.5395,N,11913.3482,W,1,12,1.04,1.8,M,-33.9,M,,*44
$GPGSA,A,3,23,15,18,13,16,20,,,,,,,1.68,1.04,1.32*03
$GLGSA,A,3,85,71,76,70,86,69,,,,,,,1.68,1.04,1.32*18
$GPGSV,3,1,11,23,73,276,41,18,63,013,39,48,47,203,30,15,44,070,32*73
$GPGSV,3,2,11,29,42,143,26,16,25,289,32,20,24,051,26,13,19,049,26*72
$GPGSV,3,3,11,05,04,049,14,10,,,24,26,,,18*4A
$GLGSV,2,1,08,70,60,059,45,85,54,052,22,71,44,179,33,86,31,323,38*65
$GLGSV,2,2,08,76,14,282,31,69,13,028,37,77,05,326,,75,04,231,*64
$GNRMC,010631.000,A,3410.5395,N,11913.3482,W,9.75,90.08,200326,,,A*52
$GNVTG,90.08,T,,M,9.75,N,18.07,K,A*27
$GNGGA,010632.000,3410.5395,N,11913.3445,W,1,12,1.04,2.0,M,-33.9,M,,*47
$GPGSA,A,3,23,15,18,13,16,20,,,,,,,1.68,1.04,1.32*03
$GLGSA,A,3,85,71,76,70,86,69,,,,,,,1.68,1.04,1.32*18
$GNRMC,010632.000,A,3410.5395,N,11913.3445,W,11.51,91.65,200326,,,A*6F
$GNVTG,91.65,T,,M,11.51,N,21.33,K,A*1F
$GNGGA,010633.000,3410.5395,N,11913.3404,W,1,12,1.04,2.0,M,-33.9,M,,*43
$GPGSA,A,3,23,15,18,13,16,20,,,,,,,1.68,1.04,1.32*03
$GLGSA,A,3,85,71,76,70,86,69,,,,,,,1.68,1.04,1.32*18
$GNRMC,010633.000,A,3410.5395,N,11913.3404,W,12.95,89.76,200326,,,A*6B
$GNVTG,89.76,T,,M,12.95,N,24.00,K,A*1A
$GNGGA,010634.000,3410.5396,N,11913.3357,W,1,12,1.04,2.0,M,-33.9,M,,*46
$GPGSA,A,3,23,15,18,13,16,20,,,,,,,1.68,1.04,1.32*03
$GLGSA,A,3,85,71,76,70,86,69,,,,,,,1.68,1.04,1.32*18
$GNRMC,010634.000,A,3410.5396,N,11913.3357,W,14.47,87.48,200326,,,A*64
$GNVTG,87.48,T,,M,14.47,N,26.82,K,A*18
$GNGGA,010635.000,3410.5397,N,11913.3306,W,1,12,1.04,1.9,M,-33.9,M,,*48
$GPGSA,A,3,23,15,18,13,16,20,,,,,,,1.68,1.04,1.32*03
$GLGSA,A,3,85,71,76,70,86,69,,,,,,,1.68,1.04,1.32*18
$GNRMC,010635.000,A,3410.5397,N,11913.3306,W,15.89,89.33,200326,,,A*61
$GNVTG,89.33,T,,M,15.89,N,29.45,K,A*1D
$GNGGA,010636.000,3410.5400,N,11913.3252,W,1,12,1.04,2.0,M,-33.9,M,,*48
$GPGSA,A,3,23,15,18,13,16,20,,,,,,,1.68,1.04,1.32*03
$GLGSA,A,3,85,71,76,70,86,69,,,,,,,1.68,1.04,1.32*18
$GPGSV,3,1,11,23,73,276,42,18,63,013,37,48,47,203,38,15,44,070,37*73
$GPGSV,3,2,11,29,42,143,30,16,25,289,30,20,24,051,28,13,19,049,29*76
$GPGSV,3,3,11,05,04,049,13,10,,,30,26,,,28*4B
$GLGSV,2,1,08,70,60,057,44,85,54,052,35,71,45,179,34,86,31,323,34*66
$GLGSV,2,2,08,76,14,282,27,69,13,028,32,77,05,326,,75,04,231,*66
$GNRMC,010636.000,A,3410.5400,N,11913.3252,W,16.29,87.18,200326,,,A*65
$GNVTG,87.18,T,,M,16.29,N,30.19,K,A*12
$GNGGA,010637.000,3410.5404,N,11913.3199,W,1,12,1.04,2.1,M,-33.9,M,,*48
$GPGSA,A,3,23,15,18,13,16,20,,,,,,,1.68,1.04,1.32*03
$GLGSA,A,3,85,71,76,70,86,69,,,,,,,1.68,1.04,1.32*18
$GNRMC,010637.000,A,3410.5404,N,11913.3199,W,15.87,85.50,200326,,,A*6D
$GNVTG,85.50,T,,M,15.87,N,29.40,K,A*1F
$GNGGA,010638.000,3410.5410,N,11913.3148,W,1,12,1.04,2.4,M,-33.9,M,,*4B
$GPGSA,A,3,23,15,18,13,16,20,,,,,,,1.68,1.04,1.32*03
$GLGSA,A,3,85,71,76,70,86,69,,,,,,,1.68,1.04,1.32*18
$GNRMC,010638.000,A,3410.5410,N,11913.3148,W,15.20,85.40,200326,,,A*67
$GNVTG,85.40,T,,M,15.20,N,28.17,K,A*10
$GNGGA,010639.000,3410.5416,N,11913.3098,W,1,12,1.04,2.6,M,-33.9,M,,*42
$GPGSA,A,3,23,15,18,13,16,20,,,,,,,1.68,1.04,1.32*03
$GLGSA,A,3,85,71,76,70,86,69,,,,,,,1.68,1.04,1.32*18
$GNRMC,010639.000,A,3410.5416,N,11913.3098,W,14.73,84.80,200326,,,A*66
$GNVTG,84.80,T,,M,14.73,N,27.29,K,A*18
$GNGGA,010640.000,3410.5419,N,11913.3051,W,1,12,1.04,2.5,M,-33.9,M,,*45
$GPGSA,A,3,23,15,18,13,16,20,,,,,,,1.68,1.04,1.32*03
$GLGSA,A,3,85,71,76,70,86,69,,,,,,,1.68,1.04,1.32*18
$GNRMC,010640.000,A,3410.5419,N,11913.3051,W,13.32,88.65,200326,,,A*67
$GNVTG,88.65,T,,M,13.32,N,24.69,K,A*1A
$GNGGA,010641.000,3410.5417,N,11913.3008,W,1,12,0.97,2.7,M,-33.9,M,,*4F
$GPGSA,A,3,23,15,18,13,16,20,,,,,,,1.26,0.97,0.80*0A
$GLGSA,A,3,85,71,76,70,86,69,,,,,,,1.26,0.97,0.80*11
$GPGSV,3,1,11,23,73,276,34,18,63,013,29,48,47,203,37,15,44,070,38*7D
$GPGSV,3,2,11,29,42,143,25,16,25,289,28,20,24,051,37,13,19,049,30*7D
$GPGSV,3,3,11,05,04,049,,10,,,30,26,,,27*46
$GLGSV,2,1,08,70,60,057,34,85,54,052,38,71,45,179,34,86,31,323,34*6C
$GLGSV,2,2,08,76,14,282,27,69,13,028,36,77,05,326,,75,04,230,*63
$GNRMC,010641.000,A,3410.5417,N,11913.3008,W,12.57,102.36,200326,,,A*53
$GNVTG,102.36,T,,M,12.57,N,23.29,K,A*2E
$GNGGA,010642.000,3410.5403,N,11913.2971,W,1,12,0.97,2.6,M,-33.9,M,,*4E
$GPGSA,A,3,23,15,18,13,16,20,,,,,,,1.26,0.97,0.80*0A
$GLGSA,A,3,85,71,76,70,86,69,,,,,,,1.26,0.97,0.80*11
$GNRMC,010642.000,A,3410.5403,N,11913.2971,W,11.84,118.95,200326,,,A*5C
$GNVTG,118.95,T,,M,11.84,N,21.94,K,A*25
$GNGGA,010643.000,3410.5379,N,11913.2945,W,1,12,1.04,2.8,M,-33.9,M,,*47
$GPGSA,A,3,23,15,18,13,16,20,,,,,,,1.68,1.04,1.32*03
$GLGSA,A,3,85,71,76,70,86,69,,,,,,,1.68,1.04,1.32*18
$GNRMC,010643.000,A,3410.5379,N,11913.2945,W,11.80,136.90,200326,,,A*5D
$GNVTG,136.90,T,,M,11.80,N,21.87,K,A*2A
$GNGGA,010644.000,3410.5331,N,11913.2939,W,1,12,1.04,2.8,M,-33.9,M,,*47
$GPGSA,A,3,23,15,18,13,16,20,,,,,,,1.68,1.04,1.32*03
$GLGSA,A,3,85,71,76,70,86,69,,,,,,,1.68,1.04,1.32*18
$GNRMC,010644.000,A,3410.5331,N,11913.2939,W,16.05,168.89,200326,,,A*54
$GNVTG,168.89,T,,M,16.05,N,29.75,K,A*26
$GNGGA,010645.000,3410.5278,N,11913.2935,W,1,12,0.97,2.9,M,-33.9,M,,*4C
$GPGSA,A,3,23,15,18,13,16,20,,,,,,,1.26,0.97,0.80*0A
$GLGSA,A,3,85,71,76,70,86,69,,,,,,,1.26,0.97,0.80*11
$GNRMC,010645.000,A,3410.5278,N,11913.2935,W,19.82,175.14,200326,,,A*5D
$GNVTG,175.14,T,,M,19.82,N,36.72,K,A*27
$GNGGA,010646.000,3410.5215,N,11913.2934,W,1,12,0.97,2.9,M,-33.9,M,,*45
$GPGSA,A,3,23,15,18,13,16,20,,,,,,,1.26,0.97,0.80*0A
$GLGSA,A,3,85,71,76,70,86,69,,,,,,,1.26,0.97,0.80*11
$GPGSV,3,1,11,23,73,276,36,18,63,013,39,48,47,203,37,15,44,070,34*72
$GPGSV,3,2,11,29,42,143,29,16,25,289,18,20,24,051,25,13,19,049,21*71
$GPGSV,3,3,11,05,04,049,,10,,,31,26,,,20*40
$GLGSV,2,1,08,70,60,057,37,85,54,052,38,71,45,179,41,86,31,323,30*69
$GLGSV,2,2,08,76,14,282,20,69,13,028,31,77,05,326,,75,04,230,*63
$GNRMC,010646.000,A,3410.5215,N,11913.2934,W,23.18,179.59,200326,,,A*5B
$GNVTG,179.59,T,,M,23.18,N,42.96,K,A*21
$GNGGA,010647.000,3410.5142,N,11913.2936,W,1,12,1.04,2.8,M,-33.9,M,,*4D
$GPGSA,A,3,23,15,18,13,16,20,,,,,,,1.68,1.04,1.32*03
$GLGSA,A,3,85,71,76,70,86,69,,,,,,,1.68,1.04,1.32*18
$GNRMC,010647.000,A,3410.5142,N,11913.2936,W,27.07,181.36,200326,,,A*5D
$GNVTG,181.36,T,,M,27.07,N,50.16,K,A*2E
$GNGGA,010648.000,3410.5055,N,11913.2935,W,1,12,1.04,2.8,M,-33.9,M,,*46
$GPGSA,A,3,23,15,18,13,16,20,,,,,,,1.68,1.04,1.32*03
$GLGSA,A,3,85,71,76,70,86,69,,,,,,,1.68,1.04,1.32*18
$GNRMC,010648.000,A,3410.5055,N,11913.2935,W,31.34,180.02,200326,,,A*57
$GNVTG,180.02,T,,M,31.34,N,58.08,K,A*28
$GNGGA,010649.000,3410.4959,N,11913.2936,W,1,12,1.04,3.0,M,-33.9,M,,*49
$GPGSA,A,3,23,15,18,13,16,20,,,,,,,1.68,1.04,1.32*03
$GLGSA,A,3,85,71,76,70,86,69,,,,,,,1.68,1.04,1.32*18
$GNRMC,010649.000,A,3410.4959,N,11913.2936,W,35.17,180.67,200326,,,A*57
$GNVTG,180.67,T,,M,35.17,N,65.17,K,A*2E
$GNGGA,010650.000,3410.4857,N,11913.2935,W,1,12,0.97,3.3,M,-33.9,M,,*45
$GPGSA,A,3,23,15,18,13,16,20,,,,,,,1.26,0.97,0.80*0A
$GLGSA,A,3,85,71,76,70,86,69,,,,,,,1.26,0.97,0.80*11
$GNRMC,010650.000,A,3410.4857,N,11913.2935,W,37.01,179.79,200326,,,A*5F
$GNVTG,179.79,T,,M,37.01,N,68.59,K,A*25
$GNGGA,010651.000,3410.4750,N,11913.2934,W,1,12,0.97,3.6,M,-33.9,M,,*48
$GPGSA,A,3,23,15,18,13,16,20,,,,,,,1.26,0.97,0.80*0A
$GLGSA,A,3,85,71,76,70,86,69,,,,,,,1.26,0.97,0.80*11
$GPGSV,3,1,11,23,73,276,37,18,63,013,38,48,47,203,39,15,44,070,36*7E
$GPGSV,3,2,11,29,42,143,23,16,25,289,27,20,24,051,28,13,19,049,26*7D
$GPGSV,3,3,11,05,04,049,18,10,,,35,26,,,29*44
$GLGSV,2,1,08,70,60,057,35,85,54,054,35,71,45,179,41,86,31,323,29*68
$GLGSV,2,2,08,76,14,282,21,69,13,028,31,77,05,326,,75,04,230,*62
$GNRMC,010651.000,A,3410.4750,N,11913.2934,W,37.95,180.60,200326,,,A*54
$GNVTG,180.60,T,,M,37.95,N,70.32,K,A*22
$GNGGA,010652.000,3410.4641,N,11913.2935,W,1,12,1.04,3.8,M,-33.9,M,,*4E
$GPGSA,A,3,23,15,18,13,16,20,,,,,,,1.68,1.04,1.32*03
$GLGSA,A,3,85,71,76,70,86,69,,,,,,,1.68,1.04,1.32*18
$GNRMC,010652.000,A,3410.4641,N,11913.2935,W,39.06,180.91,200326,,,A*5D
$GNVTG,180.91,T,,M,39.06,N,72.38,K,A*20
$GNGGA,010653.000,3410.4530,N,11913.2936,W,1,12,1.04,4.2,M,-33.9,M,,*44
$GPGSA,A,3,23,15,18,13,16,20,,,,,,,1.68,1.04,1.32*03
$GLGSA,A,3,85,71,76,70,86,69,,,,,,,1.68,1.04,1.32*18
$GNRMC,010653.000,A,3410.4530,N,11913.2936,W,40.22,180.40,200326,,,A*5E
$GNVTG,180.40,T,,M,40.22,N,74.53,K,A*2F
$GNGGA,010654.000,3410.4417,N,11913.2936,W,1,12,1.04,4.4,M,-33.9,M,,*41
$GPGSA,A,3,23,15,18,13,16,20,,,,,,,1.68,1.04,1.32*03
$GLGSA,A,3,85,71,76,70,86,69,,,,,,,1.68,1.04,1.32*18
$GNRMC,010654.000,A,3410.4417,N,11913.2936,W,40.48,180.25,200326,,,A*52
$GNVTG,180.25,T,,M,40.48,N,75.01,K,A*26
$GNGGA,010655.000,3410.4303,N,11913.2936,W,1,12,1.04,4.8,M,-33.9,M,,*4E
$GPGSA,A,3,23,15,18,13,16,20,,,,,,,1.68,1.04,1.32*03
$GLGSA,A,3,85,71,76,70,86,69,,,,,,,1.68,1.04,1.32*18
$GNRMC,010655.000,A,3410.4303,N,11913.2936,W,41.17,180.14,200326,,,A*58
$GNVTG,180.14,T,,M,41.17,N,76.29,K,A*26
$GNGGA,010656.000,3410.4187,N,11913.2935,W,1,12,1.04,5.1,M,-33.9,M,,*48
$GPGSA,A,3,23,15,18,13,16,20,,,,,,,1.68,1.04,1.32*03
$GLGSA,A,3,85,71,76,70,86,69,,,,,,,1.68,1.04,1.32*18
$GPGSV,3,1,11,23,73,276,37,18,63,013,37,48,47,203,40,15,44,070,37*7E
$GPGSV,3,2,11,29,42,143,21,16,25,289,28,20,24,051,29,13,19,049,27*70
$GPGSV,3,3,11,05,04,049,24,10,,,36,26,,,34*44
$GLGSV,2,1,08,70,60,057,35,85,54,054,35,71,45,179,41,86,31,323,28*69
$GLGSV,2,2,08,76,14,282,28,69,13,028,31,77,05,326,,75,04,230,*6B
$GNRMC,010656.000,A,3410.4187,N,11913.2935,W,42.30,179.93,200326,,,A*59
$GNVTG,179.93,T,,M,42.30,N,78.38,K,A*27
$GNGGA,010657.000,3410.4070,N,11913.2936,W,1,12,1.04,5.4,M,-33.9,M,,*46
$GPGSA,A,3,23,15,18,13,16,20,,,,,,,1.68,1.04,1.32*03
$GLGSA,A,3,85,71,76,70,86,69,,,,,,,1.68,1.04,1.32*18
$GNRMC,010657.000,A,3410.4070,N,11913.2936,W,41.92,180.46,200326,,,A*57
$GNVTG,180.46,T,,M,41.92,N,77.68,K,A*28
$GNGGA,010658.000,3410.3954,N,11913.2936,W,1,12,1.04,5.8,M,-33.9,M,,*4D
$GPGSA,A,3,23,15,18,13,16,20,,,,,,,1.68,1.04,1.32*03
$GLGSA,A,3,85,71,76,70,86,69,,,,,,,1.68,1.04,1.32*18
$GNRMC,010658.000,A,3410.3954,N,11913.2936,W,40.99,180.71,200326,,,A*5E
$GNVTG,180.71,T,,M,40.99,N,75.96,K,A*25
$GNGGA,010659.000,3410.3841,N,11913.2936,W,1,12,1.04,6.5,M,-33.9,M,,*47
$GPGSA,A,3,23,15,18,13,16,20,,,,,,,1.68,1.04,1.32*03
$GLGSA,A,3,85,71,76,70,86,69,,,,,,,1.68,1.04,1.32*18
$GNRMC,010659.000,A,3410.3841,N,11913.2936,W,40.37,180.05,200326,,,A*5D
$GNVTG,180.05,T,,M,40.37,N,74.80,K,A*24
$GNGGA,010700.000,3410.3731,N,11913.2936,W,1,12,1.04,7.0,M,-33.9,M,,*46
$GPGSA,A,3,23,15,18,13,16,20,,,,,,,1.68,1.04,1.32*03
$GLGSA,A,3,85,71,76,70,86,69,,,,,,,1.68,1.04,1.32*18
$GNRMC,010700.000,A,3410.3731,N,11913.2936,W,38.98,180.95,200326,,,A*5B
$GNVTG,180.95,T,,M,38.98,N,72.24,K,A*2F
$GNGGA,010701.000,3410.3624,N,11913.2936,W,1,13,0.98,8.0,M,-33.9,M,,*48
$GPGSA,A,3,23,10,15,18,13,16,20,,,,,,1.63,0.98,1.31*0E
$GLGSA,A,3,85,71,76,70,86,69,,,,,,,1.63,0.98,1.31*14
$GPGSV,3,1,11,23,73,276,37,18,63,013,36,48,47,203,40,15,44,070,38*70
$GPGSV,3,2,11,29,42,143,20,10,38,240,36,16,25,289,29,20,24,051,28*7A
$GPGSV,3,3,11,13,19,049,28,05,04,049,25,26,,,32*7A
$GLGSV,2,1,08,70,60,057,36,85,54,054,35,71,45,179,41,86,31,323,28*6A
$GLGSV,2,2,08,76,14,282,22,69,13,028,30,77,05,326,,75,04,230,25*67
$GNRMC,010701.000,A,3410.3624,N,11913.2936,W,38.21,180.36,200326,,,A*54
$GNVTG,180.36,T,,M,38.21,N,70.80,K,A*28
$GNGGA,010702.000,3410.3519,N,11913.2935,W,1,13,0.98,8.6,M,-33.9,M,,*43
$GPGSA,A,3,23,10,15,18,13,16,20,,,,,,1.63,0.98,1.31*0E
$GLGSA,A,3,85,71,76,70,86,69,,,,,,,1.63,0.98,1.31*14
$GNRMC,010702.000,A,3410.3519,N,11913.2935,W,37.24,180.36,200326,,,A*53
$GNVTG,180.36,T,,M,37.24,N,69.01,K,A*23
$GNGGA,010703.000,3410.3417,N,11913.2935,W,1,13,0.98,8.9,M,-33.9,M,,*42
$GPGSA,A,3,23,10,15,18,13,16,20,,,,,,1.63,0.98,1.31*0E
$GLGSA,A,3,85,71,76,70,86,69,,,,,,,1.63,0.98,1.31*14
$GNRMC,010703.000,A,3410.3417,N,11913.2935,W,36.25,180.48,200326,,,A*54
$GNVTG,180.48,T,,M,36.25,N,67.16,K,A*22
$GNGGA,010704.000,3410.3317,N,11913.2934,W,1,13,0.98,8.9,M,-33.9,M,,*43
$GPGSA,A,3,23,10,15,18,13,16,20,,,,,,1.63,0.98,1.31*0E
$GLGSA,A,3,85,71,76,70,86,69,,,,,,,1.63,0.98,1.31*14
$GNRMC,010704.000,A,3410.3317,N,11913.2934,W,35.13,179.38,200326,,,A*52
$GNVTG,179.38,T,,M,35.13,N,65.09,K,A*29
$GNGGA,010705.000,3410.3220,N,11913.2929,W,1,13,0.98,8.9,M,-33.9,M,,*4B
$GPGSA,A,3,23,10,15,18,13,16,20,,,,,,1.63,0.98,1.31*0E
$GLGSA,A,3,85,71,76,70,86,69,,,,,,,1.63,0.98,1.31*14
$GNRMC,010705.000,A,3410.3220,N,11913.2929,W,34.29,177.82,200326,,,A*5D
$GNVTG,177.82,T,,M,34.29,N,63.54,K,A*20
$GNGGA,010706.000,3410.3124,N,11913.2922,W,1,13,0.98,8.6,M,-33.9,M,,*4B
$GPGSA,A,3,23,10,15,18,13,16,20,,,,,,1.63,0.98,1.31*0E
$GLGSA,A,3,85,71,76,70,86,69,,,,,,,1.63,0.98,1.31*14
$GPGSV,3,1,11,23,73,276,35,18,63,013,36,48,47,203,39,15,44,070,30*74
$GPGSV,3,2,11,29,42,143,34,10,38,240,33,16,25,289,28,20,24,051,27*74
$GPGSV,3,3,11,13,19,049,26,05,04,049,20,26,,,34*77
$GLGSV,2,1,08,70,60,057,34,85,54,054,37,71,45,179,41,86,31,323,31*62
$GLGSV,2,2,08,76,14,282,25,69,13,028,32,77,05,326,,75,04,230,27*60
$GNRMC,010706.000,A,3410.3124,N,11913.2922,W,33.50,177.29,200326,,,A*5A
$GNVTG,177.29,T,,M,33.50,N,62.07,K,A*2F
$GNGGA,010707.000,3410.3032,N,11913.2917,W,1,13,0.98,8.5,M,-33.9,M,,*49
$GPGSA,A,3,23,10,15,18,13,16,20,,,,,,1.63,0.98,1.31*0E
$GLGSA,A,3,85,71,76,70,86,69,,,,,,,1.63,0.98,1.31*14
$GNRMC,010707.000,A,3410.3032,N,11913.2917,W,32.31,178.65,200326,,,A*5A
$GNVTG,178.65,T,,M,32.31,N,59.87,K,A*2E
$GNGGA,010708.000,3410.2945,N,11913.2914,W,1,13,0.98,8.7,M,-33.9,M,,*4F
$GPGSA,A,3,23,10,15,18,13,16,20,,,,,,1.63,0.98,1.31*0E
$GLGSA,A,3,85,71,76,70,86,69,,,,,,,1.63,0.98,1.31*14
$GNRMC,010708.000,A,3410.2945,N,11913.2914,W,29.99,179.13,200326,,,A*56
$GNVTG,179.13,T,,M,29.99,N,55.57,K,A*27
$GNGGA,010709.000,3410.2864,N,11913.2912,W,1,13,0.98,8.8,M,-33.9,M,,*45
$GPGSA,A,3,23,10,15,18,13,16,20,,,,,,1.63,0.98,1.31*0E
$GLGSA,A,3,85,71,76,70,86,69,,,,,,,1.63,0.98,1.31*14
$GNRMC,010709.000,A,3410.2864,N,11913.2912,W,27.21,179.93,200326,,,A*56
$GNVTG,179.93,T,,M,27.21,N,50.41,K,A*20
$GNGGA,010710.000,3410.2794,N,11913.2913,W,1,13,0.98,9.4,M,-33.9,M,,*41
$GPGSA,A,3,23,10,15,18,13,16,20,,,,,,1.63,0.98,1.31*0E
$GLGSA,A,3,85,71,76,70,86,69,,,,,,,1.63,0.98,1.31*14
$GNRMC,010710.000,A,3410.2794,N,11913.2913,W,23.78,180.88,200326,,,A*5B
$GNVTG,180.88,T,,M,23.78,N,44.07,K,A*23
$GNGGA,010711.000,3410.2733,N,11913.2914,W,1,13,0.98,10.1,M,-33.9,M,,*77
$GPGSA,A,3,23,10,15,18,13,16,20,,,,,,1.63,0.98,1.31*0E
$GLGSA,A,3,85,71,76,70,86,69,,,,,,,1.63,0.98,1.31*14
$GPGSV,3,1,11,23,73,276,36,18,63,013,36,48,47,203,40,15,44,070,36*7F
$GPGSV,3,2,11,29,42,143,24,10,38,240,35,16,25,289,30,20,24,051,27*7A
$GPGSV,3,3,11,13,19,049,26,05,04,049,25,26,,,34*72
$GLGSV,2,1,08,70,60,057,36,85,54,054,35,71,45,179,41,86,31,323,29*6B
$GLGSV,2,2,08,76,14,282,24,69,13,028,32,77,05,326,,75,04,230,20*66
$GNRMC,010711.000,A,3410.2733,N,11913.2914,W,20.84,180.28,200326,,,A*5A
$GNVTG,180.28,T,,M,20.84,N,38.62,K,A*21
$GNGGA,010712.000,3410.2683,N,11913.2914,W,1,13,0.98,10.4,M,-33.9,M,,*7B
$GPGSA,A,3,23,10,15,18,13,16,20,,,,,,1.63,0.98,1.31*0E
$GLGSA,A,3,85,71,76,70,86,69,,,,,,,1.63,0.98,1.31*14
$GNRMC,010712.000,A,3410.2683,N,11913.2914,W,16.99,180.53,200326,,,A*56
$GNVTG,180.53,T,,M,16.99,N,31.49,K,A*24
$GNGGA,010713.000,3410.2643,N,11913.2915,W,1,13,0.98,10.7,M,-33.9,M,,*74
$GPGSA,A,3,23,10,15,18,13,16,20,,,,,,1.63,0.98,1.31*0E
$GLGSA,A,3,85,71,76,70,86,69,,,,,,,1.63,0.98,1.31*14
$GNRMC,010713.000,A,3410.2643,N,11913.2915,W,13.55,180.09,200326,,,A*50
$GNVTG,180.09,T,,M,13.55,N,25.11,K,A*26
$GNGGA,010714.000,3410.2612,N,11913.2915,W,1,13,0.98,11.0,M,-33.9,M,,*71
$GPGSA,A,3,23,10,15,18,13,16,20,,,,,,1.63,0.98,1.31*0E
$GLGSA,A,3,85,71,76,70,86,69,,,,,,,1.63,0.98,1.31*14
$GNRMC,010714.000,A,3410.2612,N,11913.2915,W,10.66,180.57,200326,,,A*5B
$GNVTG,180.57,T,,M,10.66,N,19.75,K,A*23
$GNGGA,010715.000,3410.2587,N,11913.2915,W,1,13,0.98,11.1,M,-33.9,M,,*7E
$GPGSA,A,3,23,10,15,18,13,16,20,,,,,,1.63,0.98,1.31*0E
$GLGSA,A,3,85,71,76,70,86,69,,,,,,,1.63,0.98,1.31*14
$GNRMC,010715.000,A,3410.2587,N,11913.2915,W,8.18,178.57,200326,,,A*62
$GNVTG,178.57,T,,M,8.18,N,15.16,K,A*1D
$GNGGA,010716.000,3410.2569,N,11913.2915,W,1,12,1.00,11.3,M,-33.9,M,,*7E
$GPGSA,A,3,23,10,15,18,13,16,,,,,,,1.68,1.00,1.35*03
$GLGSA,A,3,85,71,76,70,86,69,,,,,,,1.68,1.00,1.35*1B
$GPGSV,3,1,11,23,73,276,36,18,63,013,37,48,47,203,40,15,44,070,38*70
$GPGSV,3,2,11,29,42,143,23,10,38,240,35,16,25,289,30,20,24,051,17*7E
$GPGSV,3,3,11,13,19,049,27,05,04,049,24,26,,,34*72
$GLGSV,2,1,08,70,60,057,36,85,54,054,32,71,45,179,41,86,31,323,28*6D
$GLGSV,2,2,08,76,14,282,25,69,13,028,29,77,05,326,,75,04,230,18*66
$GNRMC,010716.000,A,3410.2569,N,11913.2915,W,6.19,178.88,200326,,,A*6C
$GNVTG,178.88,T,,M,6.19,N,11.47,K,A*10
$GNGGA,010717.000,3410.2556,N,11913.2915,W,1,13,0.92,11.5,M,-33.9,M,,*7E
$GPGSA,A,3,23,10,15,18,13,16,20,,,,,,1.21,0.92,0.79*0F
$GLGSA,A,3,85,71,76,70,86,69,,,,,,,1.21,0.92,0.79*15
$GNRMC,010717.000,A,3410.2556,N,11913.2915,W,3.95,182.32,200326,,,A*64
$GNVTG,182.32,T,,M,3.95,N,7.33,K,A*21
$GNGGA,010718.000,3410.2549,N,11913.2916,W,1,13,0.98,11.6,M,-33.9,M,,*75
$GPGSA,A,3,23,10,15,18,13,16,20,,,,,,1.63,0.98,1.31*0E
$GLGSA,A,3,85,71,76,70,86,69,,,,,,,1.63,0.98,1.31*14
$GNRMC,010718.000,A,3410.2549,N,11913.2916,W,2.18,182.32,200326,,,A*62
$GNVTG,182.32,T,,M,2.18,N,4.04,K,A*22
$GNGGA,010719.000,3410.2548,N,11913.2917,W,1,13,0.92,11.6,M,-33.9,M,,*7E
$GPGSA,A,3,23,10,15,18,13,16,20,,,,,,1.21,0.92,0.79*0F
$GLGSA,A,3,85,71,76,70,86,69,,,,,,,1.21,0.92,0.79*15
$GNRMC,010719.000,A,3410.2548,N,11913.2917,W,0.02,182.32,200326,,,A*6A
$GNVTG,182.32,T,,M,0.02,N,0.04,K,A*2F
$GNGGA,010720.000,3410.2547,N,11913.2917,W,1,13,0.92,11.1,M,-33.9,M,,*7C
$GPGSA,A,3,23,10,15,18,13,16,20,,,,,,1.21,0.92,0.79*0F
$GLGSA,A,3,85,71,76,70,86,69,,,,,,,1.21,0.92,0.79*15
$GNRMC,010720.000,A,3410.2547,N,11913.2917,W,0.01,182.32,200326,,,A*6C
$GNVTG,182.32,T,,M,0.01,N,0.02,K,A*2A
$GNGGA,010721.000,3410.2547,N,11913.2916,W,1,13,0.92,10.9,M,-33.9,M,,*75
$GPGSA,A,3,23,10,15,18,13,16,20,,,,,,1.21,0.92,0.79*0F
$GLGSA,A,3,85,71,76,70,86,69,,,,,,,1.21,0.92,0.79*15
$GPGSV,3,1,11,23,73,276,33,18,63,013,38,48,47,203,40,15,44,070,37*75
$GPGSV,3,2,11,29,42,143,15,10,38,240,35,16,25,289,31,20,24,051,21*7F
$GPGSV,3,3,11,13,19,049,28,05,04,049,24,26,,,29*71
$GLGSV,2,1,08,70,60,057,35,85,54,054,30,71,45,179,41,86,31,323,30*65
$GLGSV,2,2,08,76,14,282,25,69,13,028,31,77,05,326,,75,04,230,19*6E
$GNRMC,010721.000,A,3410.2547,N,11913.2916,W,0.01,182.32,200326,,,A*6C
$GNVTG,182.32,T,,M,0.01,N,0.02,K,A*2A
$GNGGA,010722.000,3410.2547,N,11913.2915,W,1,13,0.92,10.7,M,-33.9,M,,*7B
$GPGSA,A,3,23,10,15,18,13,16,20,,,,,,1.21,0.92,0.79*0F
$GLGSA,A,3,85,71,76,70,86,69,,,,,,,1.21,0.92,0.79*15
$GNRMC,010722.000,A,3410.2547,N,11913.2915,W,0.02,182.32,200326,,,A*6F
$GNVTG,182.32,T,,M,0.02,N,0.03,K,A*28
$GNGGA,010723.000,3410.2547,N,11913.2914,W,1,13,0.92,10.7,M,-33.9,M,,*7B
$GPGSA,A,3,23,10,15,18,13,16,20,,,,,,1.21,0.92,0.79*0F
$GLGSA,A,3,85,71,76,70,86,69,,,,,,,1.21,0.92,0.79*15
$GNRMC,010723.000,A,3410.2547,N,11913.2914,W,0.01,182.32,200326,,,A*6C
$GNVTG,182.32,T,,M,0.01,N,0.03,K,A*2B
$GNGGA,010724.000,3410.2547,N,11913.2915,W,1,13,0.92,10.8,M,-33.9,M,,*72
$GPGSA,A,3,23,10,15,18,13,16,20,,,,,,1.21,0.92,0.79*0F
$GLGSA,A,3,85,71,76,70,86,69,,,,,,,1.21,0.92,0.79*15
$GNRMC,010724.000,A,3410.2547,N,11913.2915,W,0.01,182.32,200326,,,A*6A
$GNVTG,182.32,T,,M,0.01,N,0.01,K,A*29
$GNGGA,010725.000,3410.2547,N,11913.2914,W,1,13,0.92,10.8,M,-33.9,M,,*72
$GPGSA,A,3,23,10,15,18,13,16,20,,,,,,1.21,0.92,0.79*0F
$GLGSA,A,3,85,71,76,70,86,69,,,,,,,1.21,0.92,0.79*15
$GNRMC,010725.000,A,3410.2547,N,11913.2914,W,0.02,182.32,200326,,,A*69
$GNVTG,182.32,T,,M,0.02,N,0.03,K,A*28
$GNGGA,010726.000,3410.2547,N,11913.2914,W,1,13,0.92,10.7,M,-33.9,M,,*7E
$GPGSA,A,3,23,10,15,18,13,16,20,,,,,,1.21,0.92,0.79*0F
$GLGSA,A,3,85,71,76,70,86,69,,,,,,,1.21,0.92,0.79*15
$GPGSV,3,1,11,23,73,276,33,18,63,013,38,48,47,203,40,15,44,070,37*75
$GPGSV,3,2,11,29,42,143,14,10,38,240,35,16,25,289,30,20,24,051,23*7D
$GPGSV,3,3,11,13,19,049,28,05,04,049,28,26,,,27*73
$GLGSV,2,1,08,70,60,057,35,85,54,054,30,71,45,179,41,86,31,323,32*67
$GLGSV,2,2,08,76,14,282,23,69,13,028,33,77,05,326,,75,04,230,21*61
$GNRMC,010726.000,A,3410.2547,N,11913.2914,W,0.01,182.32,200326,,,A*69
$GNVTG,182.32,T,,M,0.01,N,0.02,K,A*2A
$GNGGA,010727.000,3410.2547,N,11913.2914,W,1,13,0.92,10.4,M,-33.9,M,,*7C
$GPGSA,A,3,23,10,15,18,13,16,20,,,,,,1.21,0.92,0.79*0F
$GLGSA,A,3,85,71,76,70,86,69,,,,,,,1.21,0.92,0.79*15
$GNRMC,010727.000,A,3410.2547,N,11913.2914,W,0.03,182.32,200326,,,A*6A
$GNVTG,182.32,T,,M,0.03,N,0.06,K,A*2C
$GNGGA,010728.000,3410.2547,N,11913.2913,W,1,13,0.92,10.5,M,-33.9,M,,*75
$GPGSA,A,3,23,10,15,18,13,16,20,,,,,,1.21,0.92,0.79*0F
$GLGSA,A,3,85,71,76,70,86,69,,,,,,,1.21,0.92,0.79*15
$GNRMC,010728.000,A,3410.2547,N,11913.2913,W,0.01,182.32,200326,,,A*60
$GNVTG,182.32,T,,M,0.01,N,0.03,K,A*2B
$GNGGA,010729.000,3410.2547,N,11913.2913,W,1,13,0.92,10.6,M,-33.9,M,,*77
$GPGSA,A,3,23,10,15,18,13,16,20,,,,,,1.21,0.92,0.79*0F
$GLGSA,A,3,85,71,76,70,86,69,,,,,,,1.21,0.92,0.79*15
$GNRMC,010729.000,A,3410.2547,N,11913.2913,W,0.03,182.32,200326,,,A*63
$GNVTG,182.32,T,,M,0.03,N,0.05,K,A*2F
$GNGGA,010730.000,3410.2548,N,11913.2913,W,1,13,0.92,10.7,M,-33.9,M,,*71
$GPGSA,A,3,23,10,15,18,13,16,20,,,,,,1.21,0.92,0.79*0F
$GLGSA,A,3,85,71,76,70,86,69,,,,,,,1.21,0.92,0.79*15
$GNRMC,010730.000,A,3410.2548,N,11913.2913,W,0.02,182.32,200326,,,A*65
$GNVTG,182.32,T,,M,0.02,N,0.03,K,A*28
$GNGGA,010731.000,3410.2548,N,11913.2913,W,1,14,0.89,10.9,M,-33.9,M,,*73
$GPGSA,A,3,23,10,15,18,26,13,16,20,,,,,1.19,0.89,0.78*0B
$GLGSA,A,3,85,71,76,70,86,69,,,,,,,1.19,0.89,0.78*15
$GPGSV,3,1,11,23,73,276,32,18,63,013,38,48,47,203,40,15,44,070,37*74
$GPGSV,3,2,11,29,42,143,13,10,38,240,35,16,25,289,30,20,24,051,24*7D
$GPGSV,3,3,11,26,22,254,27,13,19,049,29,05,03,050,32*45
$GLGSV,2,1,08,70,60,057,35,85,54,054,31,71,45,179,41,86,31,323,32*66
$GLGSV,2,2,08,76,14,282,20,69,13,028,32,77,05,326,22,75,04,230,19*68
$GNRMC,010731.000,A,3410.2548,N,11913.2913,W,0.03,182.32,200326,,,A*65
$GNVTG,182.32,T,,M,0.03,N,0.05,K,A*2F
$GNGGA,010732.000,3410.2548,N,11913.2913,W,1,14,0.89,10.9,M,-33.9,M,,*70
$GPGSA,A,3,23,10,15,18,26,13,16,20,,,,,1.19,0.89,0.78*0B
$GLGSA,A,3,85,71,76,70,86,69,,,,,,,1.19,0.89,0.78*15
$GNRMC,010732.000,A,3410.2548,N,11913.2913,W,0.04,182.32,200326,,,A*61
$GNVTG,182.32,T,,M,0.04,N,0.07,K,A*2A
$GNGGA,010733.000,3410.2548,N,11913.2913,W,1,14,0.89,11.3,M,-33.9,M,,*7A
$GPGSA,A,3,23,10,15,18,26,13,16,20,,,,,1.19,0.89,0.78*0B
$GLGSA,A,3,85,71,76,70,86,69,,,,,,,1.19,0.89,0.78*15
$GNRMC,010733.000,A,3410.2548,N,11913.2913,W,0.02,182.32,200326,,,A*66
$GNVTG,182.32,T,,M,0.02,N,0.04,K,A*2F
$GNGGA,010734.000,3410.2548,N,11913.2912,W,1,14,0.89,11.7,M,-33.9,M,,*78
$GPGSA,A,3,23,10,15,18,26,13,16,20,,,,,1.19,0.89,0.78*0B
$GLGSA,A,3,85,71,76,70,86,69,,,,,,,1.19,0.89,0.78*15
$GNRMC,010734.000,A,3410.2548,N,11913.2912,W,0.00,182.32,200326,,,A*62
$GNVTG,182.32,T,,M,0.00,N,0.01,K,A*28
$GNGGA,010735.000,3410.2549,N,11913.2912,W,1,14,0.89,11.8,M,-33.9,M,,*77
$GPGSA,A,3,23,10,15,18,26,13,16,20,,,,,1.19,0.89,0.78*0B
$GLGSA,A,3,85,71,76,70,86,69,,,,,,,1.19,0.89,0.78*15
$GNRMC,010735.000,A,3410.2549,N,11913.2912,W,0.01,182.32,200326,,,A*63
$GNVTG,182.32,T,,M,0.01,N,0.02,K,A*2A
$GNGGA,010736.000,3410.2548,N,11913.2912,W,1,14,0.89,11.7,M,-33.9,M,,*7A
$GPGSA,A,3,23,10,15,18,26,13,16,20,,,,,1.19,0.89,0.78*0B
$GLGSA,A,3,85,71,76,70,86,69,,,,,,,1.19,0.89,0.78*15
$GPGSV,3,1,11,23,73,276,33,18,63,013,38,48,47,203,40,15,44,070,36*74
$GPGSV,3,2,11,29,42,143,12,10,38,240,35,16,25,289,30,20,24,051,22*7A
$GPGSV,3,3,11,26,22,254,29,13,19,049,27,05,03,050,32*45
$GLGSV,2,1,08,70,60,057,34,85,54,054,28,71,45,179,41,86,31,323,32*6F
$GLGSV,2,2,08,76,14,282,30,69,13,028,30,77,05,326,20,75,04,230,17*67
$GNRMC,010736.000,A,3410.2548,N,11913.2912,W,1.32,182.32,200326,,,A*60
$GNVTG,182.32,T,,M,1.32,N,2.45,K,A*2A
$GNGGA,010737.000,3410.2541,N,11913.2913,W,1,14,0.89,11.8,M,-33.9,M,,*7C
$GPGSA,A,3,23,10,15,18,26,13,16,20,,,,,1.19,0.89,0.78*0B
$GLGSA,A,3,85,71,76,70,86,69,,,,,,,1.19,0.89,0.78*15
$GNRMC,010737.000,A,3410.2541,N,11913.2913,W,2.83,182.32,200326,,,A*60
$GNVTG,182.32,T,,M,2.83,N,5.24,K,A*23
$GNGGA,010738.000,3410.2527,N,11913.2911,W,1,14,0.89,11.8,M,-33.9,M,,*71
$GPGSA,A,3,23,10,15,18,26,13,16,20,,,,,1.19,0.89,0.78*0B
$GLGSA,A,3,85,71,76,70,86,69,,,,,,,1.19,0.89,0.78*15
$GNRMC,010738.000,A,3410.2527,N,11913.2911,W,6.57,172.68,200326,,,A*60
$GNVTG,172.68,T,,M,6.57,N,12.17,K,A*18
$GNGGA,010739.000,3410.2503,N,11913.2902,W,1,14,0.95,11.6,M,-33.9,M,,*77
$GPGSA,A,3,23,10,15,18,26,13,16,20,,,,,1.57,0.95,1.25*05
$GLGSA,A,3,85,71,76,70,86,69,,,,,,,1.57,0.95,1.25*1B
$GNRMC,010739.000,A,3410.2503,N,11913.2902,W,10.16,154.77,200326,,,A*5D
$GNVTG,154.77,T,,M,10.16,N,18.83,K,A*27
$GNGGA,010740.000,3410.2480,N,11913.2883,W,1,14,0.95,11.4,M,-33.9,M,,*79
$GPGSA,A,3,23,10,15,18,26,13,16,20,,,,,1.57,0.95,1.25*05
$GLGSA,A,3,85,71,76,70,86,69,,,,,,,1.57,0.95,1.25*1B
$GNRMC,010740.000,A,3410.2480,N,11913.2883,W,10.53,137.97,200326,,,A*5B
$GNVTG,137.97,T,,M,10.53,N,19.52,K,A*20
$GNGGA,010741.000,3410.2459,N,11913.2852,W,1,14,0.89,11.3,M,-33.9,M,,*7A
$GPGSA,A,3,23,10,15,18,26,13,16,20,,,,,1.19,0.89,0.78*0B
$GLGSA,A,3,85,71,76,70,86,69,,,,,,,1.19,0.89,0.78*15
$GPGSV,3,1,11,23,73,276,39,18,63,013,33,48,47,203,36,15,44,068,35*7E
$GPGSV,3,2,11,29,42,143,,10,38,240,36,16,25,289,27,20,24,051,25*7B
$GPGSV,3,3,11,26,22,254,21,13,18,048,27,05,03,050,25*4B
$GLGSV,2,1,08,70,60,057,32,85,54,054,39,71,45,179,34,86,31,323,22*6A
$GLGSV,2,2,08,76,14,282,21,69,13,028,24,77,05,326,18,75,04,230,20*6D
$GNRMC,010741.000,A,3410.2459,N,11913.2852,W,12.46,122.36,200326,,,A*5B
$GNVTG,122.36,T,,M,12.46,N,23.09,K,A*2E
$GNGGA,010742.000,3410.2445,N,11913.2809,W,1,14,0.95,11.2,M,-33.9,M,,*76
$GPGSA,A,3,23,10,15,18,26,13,16,20,,,,,1.57,0.95,1.25*05
$GLGSA,A,3,85,71,76,70,86,69,,,,,,,1.57,0.95,1.25*1B
$GNRMC,010742.000,A,3410.2445,N,11913.2809,W,14.55,108.39,200326,,,A*58
$GNVTG,108.39,T,,M,14.55,N,26.96,K,A*2E
